stop_id,Delay Count,Stop Name,Borough,GTFS Longitude,GTFS Latitude,branch,Number of Train Lines,Average Delay per Line,Average Delay per Line (mins)
G14,49619,Jackson Hts-Roosevelt Av,Q,-73.891338,40.746644,['A/C/E' 'B/D/F/M' 'N/Q/R'],4,63.58155982685767,1min 3sec
G08,41112,Forest Hills-71 Av,Q,-73.844521,40.721691,['A/C/E' 'B/D/F/M' 'N/Q/R'],4,30.22213941118258,0min 30sec
A24,36887,59 St-Columbus Circle,M,-73.981736,40.768296,['A/C/E' 'B/D/F/M'],6,53.691271127575824,0min 53sec
L08,35647,Bedford Av,Bk,-73.956872,40.717304,['L'],1,28.837250690395827,0min 28sec
A15,34122,125 St,M,-73.952343,40.811109,['A/C/E' 'B/D/F/M'],12,23.251518077459497,0min 23sec
A41,31310,Jay St-MetroTech,Bk,-73.987342,40.692338,['A/C/E' 'B/D/F/M'],5,59.459557807462,0min 59sec
R30,31263,DeKalb Av,Bk,-73.981824,40.690635,['N/Q/R' 'B/D/F/M'],6,17.679011106202786,0min 17sec
A42,29262,Hoyt-Schermerhorn Sts,Bk,-73.985001,40.688484,['A/C/E' 'G'],3,78.92610625525508,1min 18sec
D20,29110,W 4 St-Wash Sq,M,-74.000495,40.732338,['B/D/F/M'],7,39.615477902748864,0min 39sec
L06,27185,1 Av,M,-73.981628,40.730953,['L'],1,18.621363416488148,0min 18sec
A34,25166,Canal St,M,-74.005229,40.720824,['A/C/E'],12,16.268788583304712,0min 16sec
A32,24617,W 4 St-Wash Sq,M,-74.000495,40.732338,['A/C/E'],7,39.615477902748864,0min 39sec
G21,24023,Queens Plaza,Q,-73.937243,40.748973,['A/C/E' 'N/Q/R' 'B/D/F/M'],3,75.44736597062179,1min 15sec
D21,23617,Broadway-Lafayette St,M,-73.996204,40.725297,['B/D/F/M'],4,64.92288872779993,1min 4sec
R31,23307,Atlantic Av-Barclays Ctr,Bk,-73.97881,40.683666,['B/D/F/M' 'N/Q/R'],10,18.38316092787993,0min 18sec
L28,22866,East 105 St,Bk,-73.899485,40.650573,['L'],1,53.94159000173581,0min 53sec
A31,22183,14 St,M,-74.00169,40.740893,['A/C/E'],8,33.1768998447729,0min 33sec
F20,21959,Bergen St,Bk,-73.990862,40.686145,['B/D/F/M' 'G'],5,46.38294024019679,0min 46sec
F26,21818,Fort Hamilton Pkwy,Bk,-73.975776,40.650782,['B/D/F/M' 'G'],4,54.760230179028135,0min 54sec
A51,21449,Broadway Junction,Bk,-73.905316,40.678334,['A/C/E'],4,30.29451692869724,0min 30sec
D15,21381,47-50 Sts-Rockefeller Ctr,M,-73.981329,40.758663,['B/D/F/M'],4,63.1808904846018,1min 3sec
B08,21211,Lexington Av/63 St,M,-73.966113,40.764629,['B/D/F/M' 'N/Q/R'],4,46.73604244941006,0min 46sec
A27,21005,42 St-Port Authority Bus Terminal,M,-73.989735,40.757308,['A/C/E'],3,80.60053208844715,1min 20sec
A40,20664,High St,Bk,-73.990531,40.699337,['A/C/E'],2,133.846023724894,2min 13sec
L10,20373,Lorimer St,Bk,-73.950275,40.714063,['L'],3,13.615922105155107,0min 13sec
L22,20318,Broadway Junction,Bk,-73.90324,40.678856,['L'],4,30.29451692869724,0min 30sec
D17,20295,34 St-Herald Sq,M,-73.987823,40.749719,['B/D/F/M'],7,29.670047055984554,0min 29sec
L14,20285,Morgan Av,Bk,-73.933147,40.706152,['L'],1,18.71641963604412,0min 18sec
M16,20117,Marcy Av,Bk,-73.957757,40.708359,['B/D/F/M' 'J/Z'],2,103.64783461415306,1min 43sec
M18,20038,Delancey St-Essex St,M,-73.987437,40.718315,['B/D/F/M' 'J/Z'],3,58.17548761779531,0min 58sec
A12,19987,145 St,M,-73.944216,40.824783,['A/C/E' 'B/D/F/M'],6,34.33913807037175,0min 34sec
L27,19985,New Lots Av,Bk,-73.899232,40.658733,['L'],4,10.265671697549312,0min 10sec
F25,19928,15 St-Prospect Park,Bk,-73.979493,40.660365,['B/D/F/M' 'G'],2,130.27891651660855,2min 10sec
R36,19744,36 St,Bk,-74.003549,40.655144,['B/D/F/M' 'N/Q/R'],5,40.747271538763236,0min 40sec
L19,19612,Halsey St,Q,-73.904084,40.695602,['L'],2,13.789090727617527,0min 13sec
A28,19415,34 St-Penn Station,M,-73.993391,40.752287,['A/C/E'],6,38.78533318409074,0min 38sec
Q01,19362,Canal St,M,-74.00046,40.718383,['N/Q/R'],12,16.268788583304712,0min 16sec
A48,19071,Utica Av,Bk,-73.930729,40.679364,['A/C/E'],2,126.6395937996479,2min 6sec
L17,18780,Myrtle-Wyckoff Avs,Bk,-73.911586,40.699814,['L'],2,-2.604099076615922,0min -2sec
L15,18627,Jefferson St,Bk,-73.922913,40.706607,['L'],1,21.76734842951059,0min 21sec
A55,18580,Euclid Av,Bk,-73.872106,40.675377,['A/C/E'],2,60.760162504480824,1min 0sec
A46,18297,Nostrand Av,Bk,-73.950426,40.680438,['A/C/E'],5,47.274088524732306,0min 47sec
R14,18253,57 St-7 Av,M,-73.980658,40.764664,['N/Q/R'],3,65.92934535535687,1min 5sec
F06,18079,Kew Gardens-Union Tpke,Q,-73.831008,40.714441,['A/C/E' 'B/D/F/M'],2,111.90355395312902,1min 51sec
F24,17888,7 Av,Bk,-73.980305,40.666271,['B/D/F/M' 'G'],6,33.39928178586941,0min 33sec
702,17775,Mets-Willets Point,Q,-73.845625,40.754622,['7'],2,115.64780483694278,1min 55sec
R20,17438,14 St-Union Sq,M,-73.990568,40.735736,['N/Q/R'],8,20.757692140623192,0min 20sec
L25,16979,Sutter Av,Bk,-73.901975,40.669367,['L'],1,13.175518282625797,0min 13sec
A38,16946,Fulton St,M,-74.007691,40.710197,['A/C/E'],9,22.484671123583613,0min 22sec
L20,16888,Wilson Av,Bk,-73.904046,40.688764,['L'],1,13.912499668760104,0min 13sec
F27,16270,Church Av,Bk,-73.979678,40.644041,['B/D/F/M' 'G'],7,19.426410263679564,0min 19sec
F21,16219,Carroll St,Bk,-73.995048,40.680303,['B/D/F/M' 'G'],2,114.48625281410165,1min 54sec
L26,15819,Livonia Av,Bk,-73.900571,40.664038,['L'],1,22.377407819214472,0min 22sec
F22,15779,Smith-9 Sts,Bk,-73.995959,40.67358,['B/D/F/M' 'G'],2,97.09763938642418,1min 37sec
L21,15747,Bushwick Av-Aberdeen St,Bk,-73.905249,40.682829,['L'],1,15.858946075009076,0min 15sec
L16,15652,DeKalb Av,Bk,-73.918425,40.703811,['L'],6,17.679011106202786,0min 17sec
F23,15611,4 Av-9 St,Bk,-73.989779,40.670272,['B/D/F/M' 'G'],5,41.37306604985865,0min 41sec
H04,15604,Broad Channel,Q,-73.815925,40.608382,['A/C/E' nan],2,110.34392232643634,1min 50sec
723,15469,Grand Central-42 St,M,-73.976041,40.751431,['7'],7,23.227069395510863,0min 23sec
R17,15461,34 St-Herald Sq,M,-73.98795,40.749567,['N/Q/R'],7,29.670047055984554,0min 29sec
L03,15277,14 St-Union Sq.,M,-73.99073,40.734789,['L'],1,1.3271796929868567,0min 1sec
F07,15150,75 Av,Q,-73.837324,40.718331,['A/C/E' 'B/D/F/M'],2,106.33746984722595,1min 46sec
A09,15056,168 St,M,-73.939561,40.840719,['A/C/E'],2,50.81915275074275,0min 50sec
D16,14879,42 St-Bryant Pk,M,-73.984569,40.754222,['B/D/F/M'],4,61.50598984211108,1min 1sec
L11,14736,Graham Av,Bk,-73.944053,40.714565,['L'],1,5.47715227044836,0min 5sec
D43,14694,Coney Island-Stillwell Av,Bk,-73.981233,40.577422,['B/D/F/M' 'N/Q/R'],4,6.113597262578376,0min 6sec
725,14574,Times Sq-42 St,M,-73.987691,40.755477,['7'],8,23.43902515152203,0min 23sec
L24,14357,Atlantic Av,Bk,-73.903097,40.675345,['L'],1,8.534070134618581,0min 8sec
B04,14162,21 St-Queensbridge,Q,-73.942836,40.754203,['B/D/F/M'],1,284.84402139529533,4min 44sec
A36,14136,Chambers St,M,-74.008585,40.714111,['A/C/E'],6,31.30005543368009,0min 31sec
L13,14113,Montrose Av,Bk,-73.93985,40.707739,['L'],1,-2.3157552083333335,0min -2sec
M11,13969,Myrtle Av,Bk,-73.935657,40.697207,['B/D/F/M' 'J/Z'],2,66.30447222890118,1min 6sec
D42,13909,W 8 St-NY Aquarium,Bk,-73.975939,40.576127,['B/D/F/M' 'N/Q/R'],2,74.6768220338983,1min 14sec
R16,13747,Times Sq-42 St,M,-73.986754,40.754672,['N/Q/R'],8,23.43902515152203,0min 23sec
G06,13652,Sutphin Blvd-Archer Av-JFK Airport,Q,-73.807969,40.700486,['A/C/E' 'J/Z'],2,43.50370110814244,0min 43sec
L12,13583,Grand St,Bk,-73.94067,40.711926,['L'],3,14.415527917358254,0min 14sec
F05,13395,Briarwood,Q,-73.820574,40.709179,['A/C/E' 'B/D/F/M'],2,92.45036144578313,1min 32sec
L05,13303,3 Av,M,-73.986122,40.732849,['L'],1,0.49198583842935306,0min 0sec
F09,13295,Court Sq-23 St,Q,-73.946,40.747846,['A/C/E' 'B/D/F/M'],2,97.94917598248243,1min 37sec
D19,12797,14 St,M,-73.996209,40.738228,['B/D/F/M'],8,33.1768998447729,0min 33sec
719,12098,Court Sq,Q,-73.945264,40.747023,['7'],3,21.710863547363445,0min 21sec
D26,11847,Prospect Park,Bk,-73.962246,40.661614,['N/Q/R' 'B/D/F/M' 'S'],3,34.76461582462693,0min 34sec
F35,11829,Kings Hwy,Bk,-73.972361,40.603217,['B/D/F/M'],4,57.55617689015692,0min 57sec
A25,11706,50 St,M,-73.985984,40.762456,['A/C/E'],6,33.15353991230484,0min 33sec
721,11548,Vernon Blvd-Jackson Av,Q,-73.953581,40.742626,['7'],2,131.46713752042962,2min 11sec
705,11446,111 St,Q,-73.855334,40.75173,['7'],4,36.120987096101004,0min 36sec
F11,11416,Lexington Av/53 St,M,-73.969055,40.757552,['A/C/E' 'B/D/F/M'],2,95.32449890124525,1min 35sec
F16,11330,East Broadway,M,-73.990173,40.713715,['B/D/F/M'],1,339.27447129909365,5min 39sec
A33,11245,Spring St,M,-74.003739,40.726227,['A/C/E'],6,36.97807884390607,0min 36sec
D25,11175,7 Av,Bk,-73.972367,40.67705,['N/Q/R' 'B/D/F/M'],6,33.39928178586941,0min 33sec
716,11071,33 St-Rawson St,Q,-73.930997,40.744587,['7'],2,98.35418080373972,1min 38sec
R41,11021,59 St,Bk,-74.017881,40.641362,['N/Q/R'],7,30.721272105378066,0min 30sec
A61,10904,Rockaway Blvd,Q,-73.843853,40.680429,['A/C/E'],1,337.15540993372554,5min 37sec
D39,10721,Sheepshead Bay,Bk,-73.954155,40.586896,['N/Q/R' 'B/D/F/M'],2,73.13190203165898,1min 13sec
B06,10639,Roosevelt Island,M,-73.95326,40.759145,['B/D/F/M'],1,241.74334533644003,4min 1sec
L02,10369,6 Av,M,-73.996786,40.737335,['L'],1,-8.049489891426433,0min -8sec
G24,10333,21 St,Q,-73.949724,40.744065,['G'],1,100.42425988619175,1min 40sec
G20,10299,36 St,Q,-73.928781,40.752039,['N/Q/R' 'B/D/F/M' 'A/C/E'],5,40.747271538763236,0min 40sec
D24,10259,Atlantic Av-Barclays Ctr,Bk,-73.97689,40.68446,['N/Q/R' 'B/D/F/M'],10,18.38316092787993,0min 18sec
D14,10232,7 Av,M,-73.981637,40.762862,['A/C/E' 'B/D/F/M'],6,33.39928178586941,0min 33sec
R11,10197,Lexington Av/59 St,M,-73.967258,40.76266,['N/Q/R'],2,161.68157894736842,2min 41sec
F18,10176,York St,Bk,-73.986751,40.701397,['B/D/F/M'],1,317.7534304234363,5min 17sec
712,10000,Woodside-61 St,Q,-73.902984,40.74563,['7'],2,92.19257078534937,1min 32sec
D35,9958,Kings Hwy,Bk,-73.957734,40.60867,['N/Q/R' 'B/D/F/M'],4,57.55617689015692,0min 57sec
F38,9907,Avenue X,Bk,-73.97425,40.58962,['B/D/F/M'],1,251.79365781710914,4min 11sec
G09,9883,67 Av,Q,-73.852719,40.726523,['N/Q/R' 'B/D/F/M' 'A/C/E'],3,85.28483458614686,1min 25sec
R28,9704,Court St,Bk,-73.991777,40.6941,['N/Q/R'],2,95.59395293919204,1min 35sec
G28,9634,Nassau Av,Bk,-73.951277,40.724635,['G'],1,114.89270498217546,1min 54sec
G26,9423,Greenpoint Av,Bk,-73.954449,40.731352,['G'],1,121.61624323198667,2min 1sec
G29,9324,Metropolitan Av,Bk,-73.951418,40.712792,['G'],1,127.1389169189371,2min 7sec
G19,9133,Steinway St,Q,-73.92074,40.756879,['N/Q/R' 'B/D/F/M' 'A/C/E'],3,67.13187754228217,1min 7sec
F29,9082,Ditmas Av,Bk,-73.978172,40.636119,['B/D/F/M'],1,312.4485959067111,5min 12sec
F02,9031,169 St,Q,-73.793604,40.71047,['B/D/F/M'],1,155.10538413317545,2min 35sec
A30,9011,23 St,M,-73.998041,40.745906,['A/C/E'],13,18.509536012709624,0min 18sec
F04,8863,Sutphin Blvd,Q,-73.810708,40.70546,['B/D/F/M'],1,152.9416986383811,2min 32sec
D28,8863,Church Av,Bk,-73.962982,40.650527,['N/Q/R' 'B/D/F/M'],7,19.426410263679564,0min 19sec
707,8803,Junction Blvd,Q,-73.869527,40.749145,['7'],2,94.37445823844854,1min 34sec
711,8645,69 St,Q,-73.896403,40.746325,['7'],2,99.85531676512528,1min 39sec
R15,8645,49 St,M,-73.984139,40.759901,['N/Q/R'],3,79.95593448770911,1min 19sec
724,8640,5 Av,M,-73.981963,40.753821,['7'],2,86.14809923969588,1min 26sec
R13,8612,5 Av/59 St,M,-73.973347,40.764811,['N/Q/R'],2,119.9025,1min 59sec
R27,8578,Whitehall St-South Ferry,M,-74.012994,40.703087,['N/Q/R'],2,83.23562891291975,1min 23sec
710,8519,74 St-Broadway,Q,-73.891394,40.746848,['7'],2,91.71097910692339,1min 31sec
D18,8514,23 St,M,-73.992821,40.742878,['B/D/F/M'],13,18.509536012709624,0min 18sec
A21,8358,81 St-Museum of Natural History,M,-73.972143,40.781433,['A/C/E' 'B/D/F/M'],3,72.84012549993105,1min 12sec
715,8348,40 St-Lowery St,Q,-73.924016,40.743781,['7'],2,77.72025278957243,1min 17sec
H03,8302,Howard Beach-JFK Airport,Q,-73.830301,40.660476,['A/C/E'],1,380.1103256212511,6min 20sec
G18,8239,46 St,Q,-73.913333,40.756312,['N/Q/R' 'B/D/F/M' 'A/C/E'],3,66.01658079006474,1min 6sec
D22,8235,Grand St,M,-73.993753,40.718267,['B/D/F/M'],3,14.415527917358254,0min 14sec
709,8142,82 St-Jackson Hts,Q,-73.883697,40.747659,['7'],2,92.93618166164443,1min 32sec
718,8106,Queensboro Plaza,Q,-73.940202,40.750582,['7'],3,69.85502977025469,1min 9sec
F15,8056,Delancey St-Essex St,M,-73.988114,40.718611,['B/D/F/M'],3,58.17548761779531,0min 58sec
708,8026,90 St-Elmhurst Av,Q,-73.876613,40.748408,['7'],2,88.79374032293741,1min 28sec
A03,7976,Dyckman St,M,-73.927271,40.865491,['A/C/E'],2,108.88062622309198,1min 48sec
720,7970,Hunters Point Av,Q,-73.948916,40.742216,['7'],2,67.27605236139631,1min 7sec
A05,7872,190 St,M,-73.93418,40.859022,['A/C/E'],1,215.9459913586174,3min 35sec
D31,7853,Newkirk Plaza,Bk,-73.962793,40.635082,['N/Q/R' 'B/D/F/M'],2,53.98999459167117,0min 53sec
R24,7773,City Hall,M,-74.006978,40.713282,['N/Q/R'],2,107.37771172298707,1min 47sec
F14,7769,2 Av,M,-73.989938,40.723402,['B/D/F/M'],1,326.9593848153363,5min 26sec
G11,7683,Woodhaven Blvd,Q,-73.869229,40.733106,['N/Q/R' 'B/D/F/M' 'A/C/E'],4,38.11478379662628,0min 38sec
F30,7678,18 Av,Bk,-73.976971,40.629755,['B/D/F/M'],3,88.27670154123074,1min 28sec
713,7638,52 St,Q,-73.912549,40.744149,['7'],2,77.32295271049597,1min 17sec
706,7579,103 St-Corona Plaza,Q,-73.8627,40.749865,['7'],2,90.41462317210349,1min 30sec
A14,7565,135 St,M,-73.947649,40.817894,['A/C/E' 'B/D/F/M'],5,48.92356889800485,0min 48sec
F12,7564,5 Av/53 St,M,-73.975224,40.760167,['A/C/E' 'B/D/F/M'],2,94.2944766860116,1min 34sec
G15,7491,65 St,Q,-73.898453,40.749669,['N/Q/R' 'B/D/F/M' 'A/C/E'],3,74.10096921929919,1min 14sec
J20,7489,Crescent St,Bk,-73.873785,40.683194,['J/Z'],1,110.31539541413196,1min 50sec
G13,7456,Elmhurst Av,Q,-73.882017,40.742454,['N/Q/R' 'B/D/F/M' 'A/C/E'],3,52.09965296475797,0min 52sec
J27,7450,Broadway Junction,Bk,-73.904512,40.679498,['J/Z'],4,30.29451692869724,0min 30sec
A59,7389,80 St,Q,-73.858992,40.679371,['A/C/E'],1,266.31463646946764,4min 26sec
G32,7388,Myrtle-Willoughby Avs,Bk,-73.949046,40.694568,['G'],1,104.55904238110644,1min 44sec
A57,7387,Grant Av,Bk,-73.86505,40.677044,['A/C/E'],1,272.06024878312604,4min 32sec
F32,7357,Bay Pkwy,Bk,-73.975264,40.620769,['B/D/F/M'],3,113.43522719089798,1min 53sec
F34,7326,Avenue P,Bk,-73.973022,40.608944,['B/D/F/M'],1,484.60811892510003,8min 4sec
G36,7316,Fulton St,Bk,-73.975375,40.687119,['G'],9,22.484671123583613,0min 22sec
R22,7300,Prince St,M,-73.997702,40.724329,['N/Q/R'],3,63.39118337850045,1min 3sec
G16,7161,Northern Blvd,Q,-73.906006,40.752885,['N/Q/R' 'B/D/F/M' 'A/C/E'],3,63.49427238014425,1min 3sec
R39,7123,45 St,Bk,-74.010006,40.648939,['N/Q/R'],2,76.25881126173097,1min 16sec
G33,7055,Bedford-Nostrand Avs,Bk,-73.953522,40.689627,['G'],1,103.19098173515982,1min 43sec
G12,6805,Grand Av-Newtown,Q,-73.877223,40.737015,['N/Q/R' 'B/D/F/M' 'A/C/E'],3,54.84727376534399,0min 54sec
G10,6801,63 Dr-Rego Park,Q,-73.861604,40.729846,['N/Q/R' 'B/D/F/M' 'A/C/E'],3,68.93943355119826,1min 8sec
J24,6705,Alabama Av,Bk,-73.898654,40.676992,['J/Z'],1,112.36150927487353,1min 52sec
G35,6681,Clinton-Washington Avs,Bk,-73.966839,40.688089,['G'],3,52.44831223628692,0min 52sec
A07,6652,175 St,M,-73.939704,40.847391,['A/C/E'],1,176.08480565371025,2min 56sec
A18,6506,103 St,M,-73.961454,40.796092,['A/C/E' 'B/D/F/M'],7,32.56484699024773,0min 32sec
R34,6431,Prospect Av,Bk,-73.992872,40.665414,['N/Q/R' 'B/D/F/M'],6,24.875352808354503,0min 24sec
D41,6399,Ocean Pkwy,Bk,-73.968501,40.576312,['N/Q/R'],1,33.151638089406,0min 33sec
D03,6329,Bedford Park Blvd,Bx,-73.887138,40.873244,['B/D/F/M'],2,48.585859044849364,0min 48sec
R21,6271,8 St-NYU,M,-73.992629,40.730328,['N/Q/R'],3,68.70645569620253,1min 8sec
B10,6267,57 St,M,-73.97745,40.763972,['B/D/F/M'],1,254.27333664349553,4min 14sec
R23,6199,Canal St,M,-74.001775,40.719527,['N/Q/R'],12,16.268788583304712,0min 16sec
R44,6194,86 St,Bk,-74.028398,40.622687,['N/Q/R'],13,12.522507038749874,0min 12sec
701,6178,Flushing-Main St,Q,-73.83003,40.7596,['7'],2,13.014380116382286,0min 13sec
G34,6164,Classon Av,Bk,-73.96007,40.688873,['G'],1,111.05907445708377,1min 51sec
A16,6153,116 St,M,-73.954882,40.805085,['A/C/E' 'B/D/F/M'],8,28.327633359648132,0min 28sec
G31,6106,Flushing Av,Bk,-73.950234,40.700377,['G'],3,34.241295015502025,0min 34sec
R29,6094,Jay St-MetroTech,Bk,-73.985942,40.69218,['N/Q/R'],5,59.459557807462,0min 59sec
M12,6028,Flushing Av,Bk,-73.941126,40.70026,['B/D/F/M' 'J/Z'],3,34.241295015502025,0min 34sec
A43,5982,Lafayette Av,Bk,-73.973946,40.686113,['A/C/E'],2,119.13805309734514,1min 59sec
F33,5939,Avenue N,Bk,-73.974197,40.61514,['B/D/F/M'],1,530.1507682945382,8min 50sec
714,5907,46 St-Bliss St,Q,-73.918435,40.743132,['7'],2,85.83989928909952,1min 25sec
R19,5893,23 St,M,-73.989344,40.741303,['N/Q/R'],13,18.509536012709624,0min 18sec
718,5873,Queensboro Plaza,Q,-73.940202,40.750582,['7'],3,69.85502977025469,1min 9sec
F03,5849,Parsons Blvd,Q,-73.803326,40.707564,['B/D/F/M' 'A/C/E'],2,94.44344303797469,1min 34sec
M14,5832,Hewes St,Bk,-73.953431,40.70687,['B/D/F/M' 'J/Z'],2,57.99761933103202,0min 57sec
G30,5802,Broadway,Bk,-73.950308,40.706092,['G'],2,61.306800314465406,1min 1sec
A19,5743,96 St,M,-73.964696,40.791642,['A/C/E' 'B/D/F/M'],12,4.409018981802396,0min 4sec
D13,5736,145 St,M,-73.944216,40.824783,['B/D/F/M'],6,34.33913807037175,0min 34sec
R26,5729,Rector St,M,-74.013342,40.70722,['N/Q/R'],3,69.71863758992806,1min 9sec
R35,5710,25 St,Bk,-73.998091,40.660397,['N/Q/R' 'B/D/F/M'],3,50.76096285892634,0min 50sec
726,5709,34 St-Hudson Yards,M,-74.00191,40.755882,['7'],2,6.323445063324713,0min 6sec
G07,5677,Jamaica-Van Wyck,Q,-73.816859,40.702566,['A/C/E'],1,35.79683426443203,0min 35sec
H06,5551,Beach 67 St,Q,-73.796924,40.590927,['A/C/E'],1,140.02349803124602,2min 20sec
Q03,5487,72 St,M,-73.958424,40.768799,['N/Q/R'],9,16.19230698309085,0min 16sec
F36,5444,Avenue U,Bk,-73.973357,40.596063,['B/D/F/M'],3,61.094870721448075,1min 1sec
R18,5339,28 St,M,-73.988691,40.745494,['N/Q/R'],8,25.90311939533692,0min 25sec
D40,5292,Brighton Beach,Bk,-73.961376,40.577621,['N/Q/R' 'B/D/F/M'],2,14.26373242332045,0min 14sec
J19,5282,Cypress Hills,Bk,-73.87255,40.689941,['J/Z'],1,39.87016920827241,0min 39sec
E01,5219,World Trade Center,M,-74.009781,40.712582,['A/C/E'],1,-18.883051742344247,0min -18sec
635,5206,14 St-Union Sq,M,-73.989951,40.734673,['4 5 6'],8,20.757692140623192,0min 20sec
A60,5206,88 St,Q,-73.85147,40.679843,['A/C/E'],1,212.22539111172642,3min 32sec
Q04,5053,86 St,M,-73.951787,40.777891,['N/Q/R'],13,12.522507038749874,0min 12sec
M13,5044,Lorimer St,Bk,-73.947408,40.703869,['J/Z' 'B/D/F/M'],3,13.615922105155107,0min 13sec
D38,5027,Neck Rd,Bk,-73.955161,40.595246,['N/Q/R'],1,103.98133635801196,1min 43sec
B12,5026,9 Av,Bk,-73.994324,40.646292,['B/D/F/M'],1,49.374347069065585,0min 49sec
J12,4983,121 St,Q,-73.828294,40.700492,['J/Z'],1,159.4749710461974,2min 39sec
631,4966,Grand Central-42 St,M,-73.976848,40.751776,['4 5 6'],7,23.227069395510863,0min 23sec
F39,4965,Neptune Av,Bk,-73.974574,40.581011,['B/D/F/M'],1,187.31765665352725,3min 7sec
J28,4913,Chauncey St,Bk,-73.910456,40.682893,['J/Z'],1,99.72967032967033,1min 39sec
R32,4889,Union St,Bk,-73.98311,40.677316,['N/Q/R' 'B/D/F/M'],3,57.24925627895635,0min 57sec
J31,4882,Kosciuszko St,Bk,-73.928814,40.693342,['J/Z'],1,117.66407244941276,1min 57sec
M19,4839,Bowery,M,-73.993915,40.72028,['J/Z'],1,118.06506986027944,1min 58sec
D33,4806,Avenue J,Bk,-73.960803,40.625039,['N/Q/R'],1,119.57267759562842,1min 59sec
M21,4752,Chambers St,M,-74.003401,40.713243,['J/Z'],6,31.30005543368009,0min 31sec
D34,4736,Avenue M,Bk,-73.959399,40.617618,['N/Q/R'],1,85.05415352260778,1min 25sec
M20,4719,Canal St,M,-73.999892,40.718092,['J/Z'],12,16.268788583304712,0min 16sec
D04,4672,Kingsbridge Rd,Bx,-73.893509,40.866978,['B/D/F/M'],3,84.53304617041324,1min 24sec
J13,4657,111 St,Q,-73.836345,40.697418,['J/Z'],4,36.120987096101004,0min 36sec
A49,4470,Ralph Av,Bk,-73.920786,40.678822,['A/C/E'],2,90.9772046064048,1min 30sec
A06,4431,181 St,M,-73.937969,40.851695,['A/C/E'],2,93.66126665161435,1min 33sec
A45,4371,Franklin Av,Bk,-73.956848,40.68138,['A/C/E'],3,68.69366124290978,1min 8sec
J29,4357,Halsey St,Bk,-73.916559,40.68637,['J/Z'],2,13.789090727617527,0min 13sec
A47,4325,Kingston-Throop Avs,Bk,-73.940858,40.679921,['A/C/E'],2,122.89593762033115,2min 2sec
J21,4306,Norwood Av,Bk,-73.880039,40.68141,['J/Z'],1,123.71744680851064,2min 3sec
F31,4277,Avenue I,Bk,-73.976127,40.625322,['B/D/F/M'],1,463.2304138208116,7min 43sec
A52,4275,Liberty Av,Bk,-73.896548,40.674542,['A/C/E'],2,45.11078794288736,0min 45sec
D37,4217,Avenue U,Bk,-73.955929,40.5993,['N/Q/R'],3,61.094870721448075,1min 1sec
621,4199,125 St,M,-73.937594,40.804138,['4 5 6'],12,23.251518077459497,0min 23sec
G05,4147,Jamaica Center-Parsons/Archer,Q,-73.801109,40.702147,['A/C/E' 'J/Z'],2,-31.934841403997215,0min -31sec
D27,4118,Parkside Av,Bk,-73.961495,40.655292,['N/Q/R'],1,67.44770828057736,1min 7sec
640,4104,Brooklyn Bridge-City Hall,M,-74.004131,40.713065,['4 5 6'],5,70.61328369905956,1min 10sec
R33,4088,4 Av-9 St,Bk,-73.988302,40.670847,['N/Q/R' 'B/D/F/M'],5,41.37306604985865,0min 41sec
N02,4065,8 Av,Bk,-74.011719,40.635064,['N/Q/R'],1,191.7887839660821,3min 11sec
R42,4056,Bay Ridge Av,Bk,-74.023377,40.634967,['N/Q/R'],1,133.483019386773,2min 13sec
A22,4034,72 St,M,-73.97641,40.775594,['A/C/E' 'B/D/F/M'],9,16.19230698309085,0min 16sec
R40,4004,53 St,Bk,-74.014034,40.645069,['N/Q/R'],2,81.55500577271978,1min 21sec
M04,4001,Fresh Pond Rd,Q,-73.895877,40.706186,['B/D/F/M'],1,-130.43478911157644,-2min -10sec
A44,3998,Clinton-Washington Avs,Bk,-73.965838,40.683263,['A/C/E'],3,52.44831223628692,0min 52sec
M09,3964,Knickerbocker Av,Bk,-73.919711,40.698664,['B/D/F/M'],1,97.22005785920926,1min 37sec
J30,3943,Gates Av,Bk,-73.92227,40.68963,['J/Z'],1,95.25656601750939,1min 35sec
R25,3943,Cortlandt St,M,-74.011029,40.710668,['N/Q/R'],2,98.87215341590093,1min 38sec
626,3904,86 St,M,-73.955589,40.779492,['4 5 6'],13,12.522507038749874,0min 12sec
M08,3902,Myrtle-Wyckoff Avs,Bk,-73.912385,40.69943,['B/D/F/M'],2,-2.604099076615922,0min -2sec
A11,3828,155 St,M,-73.941514,40.830518,['A/C/E'],4,45.44752732722144,0min 45sec
S27,3826,Grasmere,SI,-74.084087,40.603117,[nan],1,60.11332403903605,1min 0sec
A50,3787,Rockaway Av,Bk,-73.911946,40.67834,['A/C/E'],5,51.59892857142857,0min 51sec
M22,3716,Fulton St,M,-74.007582,40.710374,['J/Z'],9,22.484671123583613,0min 22sec
D07,3678,Tremont Av,Bx,-73.905227,40.85041,['B/D/F/M'],2,131.96623246492987,2min 11sec
R45,3673,Bay Ridge-95 St,Bk,-74.030876,40.616622,['N/Q/R'],1,34.23210658867495,0min 34sec
D11,3665,161 St-Yankee Stadium,Bx,-73.925651,40.827905,['B/D/F/M'],3,104.86450418858368,1min 44sec
R43,3611,77 St,Bk,-74.02551,40.629742,['N/Q/R'],4,50.30455019362526,0min 50sec
J23,3604,Van Siclen Av,Bk,-73.891688,40.678024,['J/Z'],6,21.960508891411276,0min 21sec
239,3558,Franklin Avenue-Medgar Evers College,Bk,-73.958131,40.670682,['1 2 3' '4 5 6'],5,73.37447735191638,1min 13sec
S30,3499,Tompkinsville,SI,-74.074835,40.636949,[nan],1,40.04054054054054,0min 40sec
M10,3483,Central Av,Bk,-73.927397,40.697857,['B/D/F/M'],1,90.31194205827859,1min 30sec
H01,3475,Aqueduct Racetrack,Q,-73.835919,40.672097,['A/C/E'],1,124.63217623497998,2min 4sec
R09,3471,Queensboro Plaza,Q,-73.940202,40.750582,['N/Q/R'],3,69.85502977025469,1min 9sec
A20,3466,86 St,M,-73.968916,40.785868,['A/C/E' 'B/D/F/M'],13,12.522507038749874,0min 12sec
A54,3460,Shepherd Av,Bk,-73.88075,40.67413,['A/C/E'],2,49.27767499229109,0min 49sec
S28,3412,Clifton,SI,-74.071402,40.621319,[nan],1,38.73375691740111,0min 38sec
629,3365,59 St,M,-73.967967,40.762526,['4 5 6'],7,30.721272105378066,0min 30sec
M05,3360,Forest Av,Q,-73.903077,40.704423,['B/D/F/M'],1,-16.294108125606993,0min -16sec
R03,3342,Astoria Blvd,Q,-73.917843,40.770258,['N/Q/R'],1,302.5361885169254,5min 2sec
S19,3312,Great Kills,SI,-74.151399,40.551231,[nan],1,34.11675560298826,0min 34sec
A02,3290,Inwood-207 St,M,-73.919899,40.868072,['A/C/E'],1,24.56834332667111,0min 24sec
D12,3255,155 St,M,-73.938209,40.830135,['B/D/F/M'],4,45.44752732722144,0min 45sec
707,3216,Junction Blvd,Q,-73.869527,40.749145,['7'],2,94.37445823844854,1min 34sec
S16,3137,Huguenot,SI,-74.191794,40.533674,[nan],1,-33.51549967483199,0min -33sec
S17,3103,Annadale,SI,-74.178217,40.54046,[nan],1,4.927289048473968,0min 4sec
235,3099,Atlantic Av-Barclays Ctr,Bk,-73.977666,40.684359,['4 5 6' '1 2 3'],10,18.38316092787993,0min 18sec
J15,3098,Woodhaven Blvd,Q,-73.851576,40.693879,['J/Z'],4,38.11478379662628,0min 38sec
J16,3083,85 St-Forest Pkwy,Q,-73.86001,40.692435,['J/Z'],1,74.36127680154763,1min 14sec
D30,2993,Cortelyou Rd,Bk,-73.963891,40.640927,['N/Q/R'],1,91.580522993688,1min 31sec
D09,2973,170 St,Bx,-73.9134,40.839306,['B/D/F/M'],3,95.86895119418483,1min 35sec
A53,2972,Van Siclen Av,Bk,-73.890358,40.67271,['A/C/E'],6,21.960508891411276,0min 21sec
J22,2859,Cleveland St,Bk,-73.884639,40.679947,['J/Z'],1,65.4117201313463,1min 5sec
S20,2843,Bay Terrace,SI,-74.136907,40.5564,[nan],1,7.819554110543428,0min 7sec
J14,2836,104 St,Q,-73.84433,40.695178,['J/Z'],2,68.82408533215431,1min 8sec
F01,2801,Jamaica-179 St,Q,-73.783817,40.712646,['B/D/F/M' 'A/C/E'],2,5.837298205153916,0min 5sec
D05,2764,Fordham Rd,Bx,-73.897749,40.861296,['B/D/F/M'],3,73.24306699615596,1min 13sec
A63,2745,104 St,Q,-73.837683,40.681711,['A/C/E'],2,68.82408533215431,1min 8sec
S22,2706,New Dorp,SI,-74.11721,40.57348,[nan],1,-1.1058690744920994,0min -1sec
M06,2705,Seneca Av,Q,-73.90774,40.702762,['B/D/F/M'],1,-48.306268882175225,0min -48sec
A17,2659,Cathedral Pkwy (110 St),M,-73.958161,40.800603,['A/C/E' 'B/D/F/M'],4,60.339591127739176,1min 0sec
Q05,2643,96 St,M,-73.947152,40.784318,['N/Q/R'],12,4.409018981802396,0min 4sec
S25,2627,Dongan Hills,SI,-74.09609,40.588849,[nan],1,42.54724608388075,0min 42sec
420,2618,Bowling Green,M,-74.014065,40.704817,['4 5 6'],3,77.6972687400319,1min 17sec
A64,2597,111 St,Q,-73.832163,40.684331,['A/C/E'],4,36.120987096101004,0min 36sec
S21,2589,Oakwood Heights,SI,-74.12632,40.56511,[nan],1,59.00333555703803,0min 59sec
S18,2586,Eltingville,SI,-74.16457,40.544601,[nan],1,43.112688821752265,0min 43sec
D01,2585,Norwood-205 St,Bx,-73.878855,40.874811,['B/D/F/M'],1,19.854956497431775,0min 19sec
J17,2535,75 St-Elderts Ln,Q,-73.867139,40.691324,['J/Z'],1,112.99067877629064,1min 52sec
S29,2534,Stapleton,SI,-74.075162,40.627915,[nan],1,63.565438754118,1min 3sec
H15,2525,Rockaway Park-Beach 116 St,Q,-73.835592,40.580903,['A/C/E' nan],2,12.848469461772813,0min 12sec
D10,2510,167 St,Bx,-73.91844,40.833771,['B/D/F/M'],3,102.30641241353523,1min 42sec
G22,2489,Court Sq,Q,-73.943832,40.746554,['G'],3,21.710863547363445,0min 21sec
423,2410,Borough Hall,Bk,-73.990151,40.692404,['4 5 6'],5,75.22100768573868,1min 15sec
D29,2390,Beverley Rd,Bk,-73.964492,40.644031,['N/Q/R'],1,60.65383031301483,1min 0sec
234,2384,Nevins St,Bk,-73.980492,40.688246,['4 5 6' '1 2 3'],5,78.79328382305457,1min 18sec
H02,2366,Aqueduct-N Conduit Av,Q,-73.834058,40.668234,['A/C/E'],1,335.74317704688593,5min 35sec
D32,2348,Avenue H,Bk,-73.961639,40.62927,['N/Q/R'],1,13.59060517743871,0min 13sec
S13,2331,Richmond Valley,SI,-74.229141,40.519631,[nan],1,78.02457337883959,1min 18sec
H12,2324,Beach 90 St,Q,-73.813641,40.588034,['A/C/E' nan],2,21.655483507189174,0min 21sec
H14,2311,Beach 105 St,Q,-73.827559,40.583209,['A/C/E' nan],2,31.419877408056042,0min 31sec
B23,2295,Bay 50 St,Bk,-73.983765,40.588841,['B/D/F/M'],1,7.455487336914812,0min 7sec
S14,2290,Pleasant Plains,SI,-74.217847,40.52241,[nan],1,64.12767884092968,1min 4sec
120,2262,96 St,M,-73.972323,40.793919,['1 2 3'],12,4.409018981802396,0min 4sec
M01,2247,Middle Village-Metropolitan Av,Q,-73.889601,40.711396,['B/D/F/M'],1,-123.29311166410758,-2min -3sec
D06,2226,182-183 Sts,Bx,-73.900741,40.856093,['B/D/F/M'],2,88.78606896551725,1min 28sec
137,2215,Chambers St,M,-74.009266,40.715478,['1 2 3'],6,31.30005543368009,0min 31sec
721,2175,Vernon Blvd-Jackson Av,Q,-73.953581,40.742626,['7'],2,131.46713752042962,2min 11sec
S24,2174,Jefferson Av,SI,-74.103338,40.583591,[nan],1,76.09321372854915,1min 16sec
S26,2136,Old Town,SI,-74.087368,40.596612,[nan],1,53.6158740790355,0min 53sec
127,2132,Times Sq-42 St,M,-73.987495,40.75529,['1 2 3'],8,23.43902515152203,0min 23sec
409,2123,Burnside Av,Bx,-73.907684,40.853453,['4 5 6'],1,334.46124763705103,5min 34sec
S15,2095,Prince's Bay,SI,-74.200064,40.525507,[nan],1,41.19328193832599,0min 41sec
H07,2085,Beach 60 St,Q,-73.788522,40.592374,['A/C/E'],1,144.14548889938592,2min 24sec
123,2070,72 St,M,-73.98197,40.778453,['1 2 3'],9,16.19230698309085,0min 16sec
M23,2053,Broad St,M,-74.011056,40.706476,['J/Z'],1,-5.638344770222499,0min -5sec
213,1964,E 180 St,Bx,-73.873488,40.841894,['1 2 3' '4 5 6'],3,107.97041792547834,1min 47sec
H10,1959,Beach 25 St,Q,-73.761353,40.600066,['A/C/E'],1,103.10375939849624,1min 43sec
142,1949,South Ferry,M,-74.013664,40.702068,['1 2 3'],1,339.7205736894164,5min 39sec
R06,1936,36 Av,Q,-73.929575,40.756804,['N/Q/R'],1,294.2910391566265,4min 54sec
S31,1915,St George,SI,-74.073643,40.643748,[nan],1,25.3352544047423,0min 25sec
608,1889,Parkchester,Bx,-73.860816,40.833226,['4 5 6'],2,156.99265381083563,2min 36sec
416,1884,138 St-Grand Concourse,Bx,-73.929849,40.813224,['4 5 6'],3,124.18931234465617,2min 4sec
S23,1865,Grant City,SI,-74.109704,40.578965,[nan],1,47.91773102930128,0min 47sec
N08,1862,Kings Hwy,Bk,-73.980353,40.603923,['N/Q/R'],4,57.55617689015692,0min 57sec
H08,1810,Beach 44 St,Q,-73.776013,40.592943,['A/C/E'],1,89.46023468057366,1min 29sec
H09,1796,Beach 36 St,Q,-73.768175,40.595398,['A/C/E'],1,93.78429471643238,1min 33sec
N07,1732,Bay Pkwy,Bk,-73.981848,40.611815,['N/Q/R'],3,113.43522719089798,1min 53sec
A65,1727,Ozone Park-Lefferts Blvd,Q,-73.825798,40.685951,['A/C/E'],1,25.089613034623216,0min 25sec
N10,1724,86 St,Bk,-73.97823,40.592721,['N/Q/R'],13,12.522507038749874,0min 12sec
D08,1693,174-175 Sts,Bx,-73.910136,40.8459,['B/D/F/M'],2,128.41432068543452,2min 8sec
S11,1682,Arthur Kill,SI,-74.242096,40.516578,[nan],1,3.600558059669457,0min 3sec
132,1646,14 St,M,-74.000201,40.737826,['1 2 3'],8,33.1768998447729,0min 33sec
B17,1645,71 St,Bk,-73.998864,40.619589,['B/D/F/M'],1,14.921770770163736,0min 14sec
H11,1640,Far Rockaway-Mott Av,Q,-73.755405,40.603995,['A/C/E'],1,21.473292813728996,0min 21sec
637,1589,Bleecker St,M,-73.994659,40.725915,['4 5 6'],3,142.16798344620017,2min 22sec
N04,1561,New Utrecht Av,Bk,-73.996353,40.624842,['N/Q/R'],1,113.76051924798567,1min 53sec
128,1556,34 St-Penn Station,M,-73.991057,40.750373,['1 2 3'],6,38.78533318409074,0min 38sec
N03,1458,Fort Hamilton Pkwy,Bk,-74.005351,40.631386,['N/Q/R'],4,54.760230179028135,0min 54sec
B18,1449,79 St,Bk,-74.00061,40.613501,['B/D/F/M'],3,10.55803409503083,0min 10sec
222,1438,149 St-Grand Concourse,Bx,-73.926718,40.81841,['1 2 3' '4 5 6'],4,84.37069666576308,1min 24sec
413,1432,167 St,Bx,-73.9214,40.835537,['4 5 6'],3,102.30641241353523,1min 42sec
619,1395,3 Av-138 St,Bx,-73.926138,40.810476,['4 5 6'],2,146.68908081431215,2min 26sec
250,1367,Crown Hts-Utica Av,Bk,-73.932942,40.668897,['4 5 6' '1 2 3'],4,165.60401579986834,2min 45sec
B19,1366,18 Av,Bk,-74.001736,40.607954,['B/D/F/M'],3,88.27670154123074,1min 28sec
R04,1363,30 Av,Q,-73.921479,40.766779,['N/Q/R'],1,186.62356662712534,3min 6sec
B13,1357,Fort Hamilton Pkwy,Bk,-73.994304,40.640914,['B/D/F/M'],4,54.760230179028135,0min 54sec
B22,1351,25 Av,Bk,-73.986829,40.597704,['B/D/F/M'],1,3.306821480406386,0min 3sec
N05,1328,18 Av,Bk,-73.990414,40.620671,['N/Q/R'],3,88.27670154123074,1min 28sec
414,1305,161 St-Yankee Stadium,Bx,-73.925831,40.827994,['4 5 6'],3,104.86450418858368,1min 44sec
418,1297,Fulton St,M,-74.009509,40.710368,['4 5 6'],9,22.484671123583613,0min 22sec
R08,1253,39 Av-Dutch Kills,Q,-73.932755,40.752882,['N/Q/R'],1,236.0971149939049,3min 56sec
415,1233,149 St-Grand Concourse,Bx,-73.927351,40.818375,['4 5 6'],4,84.37069666576308,1min 24sec
241,1220,President Street-Medgar Evers College,Bk,-73.950683,40.667883,['4 5 6' '1 2 3'],3,141.95157725537473,2min 21sec
B20,1206,20 Av,Bk,-73.998168,40.604556,['B/D/F/M'],2,17.12255205112348,0min 17sec
613,1203,Hunts Point Av,Bx,-73.890549,40.820948,['4 5 6'],2,140.10188564476886,2min 20sec
N06,1197,20 Av,Bk,-73.985026,40.61741,['N/Q/R'],2,17.12255205112348,0min 17sec
A10,1188,163 St-Amsterdam Av,M,-73.939892,40.836013,['A/C/E'],2,46.019358041032426,0min 46sec
R01,1158,Astoria-Ditmars Blvd,Q,-73.912034,40.775036,['N/Q/R'],1,15.755364806866952,0min 15sec
101,1157,Van Cortlandt Park-242 St,Bx,-73.898583,40.889248,['1 2 3'],1,376.68056713928274,6min 16sec
H13,1148,Beach 98 St,Q,-73.820558,40.585307,['A/C/E' nan],2,16.84428327645051,0min 16sec
R05,1142,Broadway,Q,-73.925508,40.76182,['N/Q/R'],2,61.306800314465406,1min 1sec
S09,1135,Tottenville,SI,-74.251961,40.512764,[nan],1,11.244622675902297,0min 11sec
N09,1126,Avenue U,Bk,-73.979137,40.597473,['N/Q/R'],3,61.094870721448075,1min 1sec
247,1120,Flatbush Av-Brooklyn College,Bk,-73.947642,40.632836,['1 2 3' '4 5 6'],2,333.118399339934,5min 33sec
109,1072,Dyckman St,M,-73.925536,40.860531,['1 2 3'],2,108.88062622309198,1min 48sec
112,1044,168 St-Washington Hts,M,-73.940133,40.840556,['1 2 3'],1,284.24163265306123,4min 44sec
221,988,3 Av-149 St,Bx,-73.917757,40.816109,['1 2 3' '4 5 6'],3,142.7151467505241,2min 22sec
419,983,Wall St,M,-74.011862,40.707557,['4 5 6'],5,72.93250141803745,1min 12sec
134,943,Houston St,M,-74.005367,40.728251,['1 2 3'],2,158.88317757009347,2min 38sec
636,928,Astor Pl,M,-73.99107,40.730054,['4 5 6'],3,114.9230313795145,1min 54sec
115,917,137 St-City College,M,-73.953676,40.822008,['1 2 3'],1,219.7741935483871,3min 39sec
632,904,33 St,M,-73.982076,40.746081,['4 5 6'],3,100.79956427015252,1min 40sec
601,897,Pelham Bay Park,Bx,-73.828121,40.852462,['4 5 6'],2,248.95158002038735,4min 8sec
244,894,Church Av,Bk,-73.949575,40.650843,['1 2 3' '4 5 6'],7,19.426410263679564,0min 19sec
630,888,51 St,M,-73.97192,40.757107,['4 5 6'],3,91.49300254452926,1min 31sec
B15,882,55 St,Bk,-73.995476,40.631435,['B/D/F/M'],1,-37.84006163328197,0min -37sec
B16,856,62 St,Bk,-73.996895,40.626472,['B/D/F/M'],1,45.79582875960483,0min 45sec
108,855,207 St,M,-73.918822,40.864621,['1 2 3'],1,297.4148706896552,4min 57sec
B21,834,Bay Pkwy,Bk,-73.993728,40.601875,['B/D/F/M'],3,113.43522719089798,1min 53sec
106,828,Marble Hill-225 St,M,-73.909831,40.874561,['1 2 3'],1,420.16018845700825,7min 0sec
B14,793,50 St,Bk,-73.994791,40.63626,['B/D/F/M'],6,33.15353991230484,0min 33sec
125,787,59 St-Columbus Circle,M,-73.981929,40.768247,['1 2 3'],6,53.691271127575824,0min 53sec
401,773,Woodlawn,Bx,-73.878751,40.886037,['4 5 6'],1,516.5558194774346,8min 36sec
104,767,231 St,Bx,-73.904834,40.878856,['1 2 3'],1,392.03188775510205,6min 32sec
138,767,WTC Cortlandt,M,-74.012188,40.711835,['1 2 3'],1,295.6252723311547,4min 55sec
126,733,50 St,M,-73.983849,40.761728,['1 2 3'],6,33.15353991230484,0min 33sec
246,724,Newkirk Av - Little Haiti,Bk,-73.948411,40.639967,['1 2 3' '4 5 6'],3,139.54548762736536,2min 19sec
135,710,Canal St,M,-74.006277,40.722854,['1 2 3'],12,16.268788583304712,0min 16sec
107,706,215 St,M,-73.915279,40.869444,['1 2 3'],1,296.86917098445593,4min 56sec
245,704,Beverly Rd,Bk,-73.948959,40.645098,['4 5 6' '1 2 3'],3,147.33838383838383,2min 27sec
638,701,Spring St,M,-73.997141,40.722301,['4 5 6'],6,36.97807884390607,0min 36sec
639,690,Canal St,M,-74.000193,40.718803,['4 5 6'],12,16.268788583304712,0min 16sec
634,679,23 St,M,-73.986599,40.739864,['4 5 6'],13,18.509536012709624,0min 18sec
103,679,238 St,Bx,-73.90087,40.884667,['1 2 3'],1,369.9901547116737,6min 9sec
111,668,181 St,M,-73.933596,40.849505,['1 2 3'],2,93.66126665161435,1min 33sec
625,662,96 St,M,-73.95107,40.785672,['4 5 6'],12,4.409018981802396,0min 4sec
405,654,Bedford Park Blvd-Lehman College,Bx,-73.890064,40.873412,['4 5 6'],1,371.7854304635762,6min 11sec
628,654,68 St-Hunter College,M,-73.96387,40.768141,['4 5 6'],3,95.7063599458728,1min 35sec
227,648,Central Park North (110 St),M,-73.951822,40.799075,['1 2 3'],2,251.29706275033377,4min 11sec
133,644,Christopher St-Sheridan Sq,M,-74.002906,40.733422,['1 2 3'],2,140.33963344788086,2min 20sec
124,642,66 St-Lincoln Center,M,-73.982209,40.77344,['1 2 3'],2,104.03067885117494,1min 44sec
243,621,Winthrop St,Bk,-73.9502,40.656652,['4 5 6' '1 2 3'],3,156.56738487536967,2min 36sec
402,617,Mosholu Pkwy,Bx,-73.884655,40.87975,['4 5 6'],1,462.8774193548387,7min 42sec
501,615,Eastchester-Dyre Av,Bx,-73.830834,40.8883,['4 5 6'],2,369.8472834067548,6min 9sec
139,607,Rector St,M,-74.013783,40.707513,['1 2 3'],3,69.71863758992806,1min 9sec
622,595,116 St,M,-73.941617,40.798629,['4 5 6'],8,28.327633359648132,0min 28sec
627,576,77 St,M,-73.959874,40.77362,['4 5 6'],4,50.30455019362526,0min 50sec
242,570,Sterling St,Bk,-73.95085,40.662742,['1 2 3' '4 5 6'],3,140.8337825696316,2min 20sec
113,556,157 St,M,-73.94489,40.834041,['1 2 3'],1,202.19409282700423,3min 22sec
201,550,Wakefield-241 St,Bx,-73.85062,40.903125,['1 2 3' '4 5 6'],2,248.7564308681672,4min 8sec
116,550,125 St,M,-73.958372,40.815581,['1 2 3'],12,23.251518077459497,0min 23sec
505,546,Morris Park,Bx,-73.860495,40.854364,['4 5 6'],2,375.375,6min 15sec
406,536,Kingsbridge Rd,Bx,-73.897174,40.86776,['4 5 6'],3,84.53304617041324,1min 24sec
616,530,E 143 St-St Mary's St,Bx,-73.907657,40.808719,['4 5 6'],1,297.9574105621806,4min 57sec
231,517,Clark St,Bk,-73.993086,40.697466,['1 2 3'],2,332.16998191681733,5min 32sec
131,513,18 St,M,-73.997871,40.74104,['1 2 3'],2,118.20862800565772,1min 58sec
623,510,110 St,M,-73.94425,40.79502,['4 5 6'],3,100.0,1min 40sec
136,507,Franklin St,M,-74.006886,40.719318,['1 2 3'],2,127.40101892285298,2min 7sec
139,500,Rector St,M,-74.013783,40.707513,['1 2 3'],3,69.71863758992806,1min 9sec
214,491,West Farms Sq-E Tremont Av,Bx,-73.880049,40.840295,['1 2 3' '4 5 6'],3,181.79495798319329,3min 1sec
119,488,103 St,M,-73.968379,40.799446,['1 2 3'],7,32.56484699024773,0min 32sec
204,487,Nereid Av,Bx,-73.854376,40.898379,['1 2 3' '4 5 6'],3,176.59764011799408,2min 56sec
121,483,86 St,M,-73.976218,40.788644,['1 2 3'],13,12.522507038749874,0min 12sec
129,482,28 St,M,-73.993365,40.747215,['1 2 3'],8,25.90311939533692,0min 25sec
408,479,183 St,Bx,-73.903879,40.858407,['4 5 6'],1,274.07758620689657,4min 34sec
215,478,174 St,Bx,-73.887734,40.837288,['4 5 6' '1 2 3'],3,185.3626244874048,3min 5sec
248,478,Nostrand Av,Bk,-73.950466,40.669847,['1 2 3' '4 5 6'],5,47.274088524732306,0min 47sec
633,477,28 St,M,-73.984264,40.74307,['4 5 6'],8,25.90311939533692,0min 25sec
224,474,135 St,M,-73.94077,40.814229,['1 2 3'],5,48.92356889800485,0min 48sec
122,473,79 St,M,-73.979917,40.783934,['1 2 3'],3,10.55803409503083,0min 10sec
110,467,191 St,M,-73.929412,40.855225,['1 2 3'],1,244.44035087719297,4min 4sec
237,466,Grand Army Plaza,Bk,-73.971046,40.675235,['1 2 3' '4 5 6'],3,227.27302849569253,3min 47sec
238,466,Eastern Pkwy-Brooklyn Museum,Bk,-73.964375,40.671987,['1 2 3' '4 5 6'],3,241.44554455445544,4min 1sec
114,460,145 St,M,-73.95036,40.826551,['1 2 3'],6,34.33913807037175,0min 34sec
612,460,Whitlock Av,Bx,-73.886283,40.826525,['4 5 6'],1,283.44425087108016,4min 43sec
607,458,Castle Hill Av,Bx,-73.851222,40.834255,['4 5 6'],2,203.8413001912046,3min 23sec
624,458,103 St,M,-73.947478,40.7906,['4 5 6'],7,32.56484699024773,0min 32sec
212,457,Bronx Park East,Bx,-73.868457,40.848828,['1 2 3' '4 5 6'],3,114.9637952559301,1min 54sec
220,450,Jackson Av,Bx,-73.907807,40.81649,['1 2 3' '4 5 6'],3,203.81812652068126,3min 23sec
117,449,116 St-Columbia University,M,-73.96411,40.807722,['1 2 3'],1,178.65295169946333,2min 58sec
614,448,Longwood Av,Bx,-73.896435,40.816104,['4 5 6'],2,150.14271047227925,2min 30sec
130,435,23 St,M,-73.995657,40.744081,['1 2 3'],13,18.509536012709624,0min 18sec
407,428,Fordham Rd,Bx,-73.901034,40.862803,['4 5 6'],3,73.24306699615596,1min 13sec
217,419,Simpson St,Bx,-73.893064,40.824073,['4 5 6' '1 2 3'],3,160.66666666666666,2min 40sec
257,414,New Lots Av,Bk,-73.884079,40.666235,['1 2 3' '4 5 6'],4,10.265671697549312,0min 10sec
255,409,Pennsylvania Av,Bk,-73.894895,40.664635,['4 5 6' '1 2 3'],3,195.54111600587373,3min 15sec
618,407,Brook Av,Bx,-73.91924,40.807566,['4 5 6'],1,299.48366013071893,4min 59sec
604,404,Westchester Sq-E Tremont Av,Bx,-73.842952,40.839892,['4 5 6'],2,221.49571734475376,3min 41sec
502,404,Baychester Av,Bx,-73.838591,40.878663,['4 5 6'],2,298.41407867494826,4min 58sec
251,399,Sutter Av-Rutland Rd,Bk,-73.92261,40.664717,['1 2 3' '4 5 6'],3,176.98893805309737,2min 56sec
118,396,Cathedral Pkwy (110 St),M,-73.966847,40.803967,['1 2 3'],4,60.339591127739176,1min 0sec
216,395,Freeman St,Bx,-73.891865,40.829993,['1 2 3' '4 5 6'],3,180.82373113854598,3min 0sec
236,387,Bergen St,Bk,-73.975098,40.680829,['1 2 3' '4 5 6'],5,46.38294024019679,0min 46sec
412,387,170 St,Bx,-73.917791,40.840075,['4 5 6'],3,95.86895119418483,1min 35sec
503,387,Gun Hill Rd,Bx,-73.846384,40.869526,['4 5 6'],3,210.31689602446485,3min 30sec
230,377,Wall St,M,-74.0091,40.706821,['1 2 3'],5,72.93250141803745,1min 12sec
617,375,Cypress Av,Bx,-73.914042,40.805368,['4 5 6'],2,139.2351543942993,2min 19sec
208,374,Gun Hill Rd,Bx,-73.866256,40.87785,['1 2 3' '4 5 6'],3,210.31689602446485,3min 30sec
229,370,Fulton St,M,-74.006571,40.709416,['1 2 3'],9,22.484671123583613,0min 22sec
S01,370,Franklin Av,Bk,-73.955827,40.680596,['S'],3,68.69366124290978,1min 8sec
611,369,Elder Av,Bx,-73.879159,40.828584,['4 5 6'],2,139.1118721461187,2min 19sec
211,365,Pelham Pkwy,Bx,-73.867615,40.857192,['1 2 3' '4 5 6'],3,187.2142567841231,3min 7sec
603,365,Middletown Rd,Bx,-73.836322,40.843863,['4 5 6'],2,230.59846547314578,3min 50sec
609,363,St Lawrence Av,Bx,-73.867618,40.831509,['4 5 6'],2,153.88344988344988,2min 33sec
219,359,Prospect Av,Bx,-73.90177,40.819585,['1 2 3' '4 5 6'],6,24.875352808354503,0min 24sec
207,357,219 St,Bx,-73.862633,40.883895,['1 2 3' '4 5 6'],3,145.6461655277145,2min 25sec
602,356,Buhre Av,Bx,-73.832569,40.84681,['4 5 6'],2,214.99253731343285,3min 34sec
205,356,233 St,Bx,-73.857473,40.893193,['1 2 3' '4 5 6'],3,127.4635922330097,2min 7sec
615,355,E 149 St,Bx,-73.904098,40.812118,['4 5 6'],1,286.12345679012344,4min 46sec
252,342,Saratoga Av,Bk,-73.916327,40.661453,['4 5 6' '1 2 3'],3,187.64978902953587,3min 7sec
504,337,Pelham Pkwy,Bx,-73.855359,40.858985,['4 5 6'],3,187.2142567841231,3min 7sec
232,333,Borough Hall,Bk,-73.989998,40.693219,['1 2 3'],5,75.22100768573868,1min 15sec
210,331,Allerton Av,Bx,-73.867352,40.865462,['1 2 3' '4 5 6'],3,150.25062656641603,2min 30sec
635,330,14 St-Union Sq,M,-73.989951,40.734673,['4 5 6'],8,20.757692140623192,0min 20sec
253,329,Rockaway Av,Bk,-73.908946,40.662549,['1 2 3' '4 5 6'],5,51.59892857142857,0min 51sec
228,315,Park Place,M,-74.008811,40.713051,['1 2 3'],2,305.0807365439093,5min 5sec
411,313,Mt Eden Av,Bx,-73.914685,40.844434,['4 5 6'],1,219.14477211796248,3min 39sec
410,312,176 St,Bx,-73.911794,40.84848,['4 5 6'],1,381.23514211886305,6min 21sec
249,311,Kingston Av,Bk,-73.942161,40.669399,['4 5 6' '1 2 3'],3,257.65432098765433,4min 17sec
S04,309,Botanic Garden,Bk,-73.959245,40.670343,['S'],1,54.26119402985075,0min 54sec
218,309,Intervale Av,Bx,-73.896736,40.822181,['4 5 6' '1 2 3'],3,182.01069518716577,3min 2sec
256,309,Van Siclen Av,Bk,-73.889395,40.665449,['1 2 3' '4 5 6'],6,21.960508891411276,0min 21sec
610,298,Morrison Av-Soundview,Bx,-73.874516,40.829521,['4 5 6'],1,280.41483516483515,4min 40sec
206,275,225 St,Bx,-73.860341,40.888022,['1 2 3' '4 5 6'],3,172.53645833333334,2min 52sec
225,269,125 St,M,-73.945495,40.807754,['1 2 3'],12,23.251518077459497,0min 23sec
233,264,Hoyt St,Bk,-73.985065,40.690545,['1 2 3'],2,295.5206896551724,4min 55sec
606,262,Zerega Av,Bx,-73.847036,40.836488,['4 5 6'],2,219.69072164948454,3min 39sec
302,261,145 St,M,-73.936245,40.820421,['1 2 3'],6,34.33913807037175,0min 34sec
254,247,Junius St,Bk,-73.902447,40.663515,['1 2 3' '4 5 6'],3,196.32972322503008,3min 16sec
209,236,Burke Av,Bx,-73.867164,40.871356,['1 2 3' '4 5 6'],3,63.29425287356322,1min 3sec
226,236,116 St,M,-73.949625,40.802098,['1 2 3'],8,28.327633359648132,0min 28sec
301,192,Harlem-148 St,M,-73.93647,40.82388,['1 2 3'],1,451.43111111111114,7min 31sec
S03,171,Park Pl,Bk,-73.957624,40.674772,['S'],1,79.85804416403785,1min 19sec
