stop_id,Delay Count,Stop Name,Borough,GTFS Longitude,GTFS Latitude,branch
G14,34111,Jackson Hts-Roosevelt Av,Q,-73.891338,40.746644,['A/C/E' 'B/D/F/M' 'N/Q/R']
A24,29538,59 St-Columbus Circle,M,-73.981736,40.768296,['A/C/E' 'B/D/F/M']
G08,26348,Forest Hills-71 Av,Q,-73.844521,40.721691,['A/C/E' 'B/D/F/M' 'N/Q/R']
A41,24153,Jay St-MetroTech,Bk,-73.987342,40.692338,['A/C/E' 'B/D/F/M']
A15,23938,125 St,M,-73.952343,40.811109,['A/C/E' 'B/D/F/M']
D20,22830,W 4 St-Wash Sq,M,-74.000495,40.732338,['B/D/F/M']
R30,20995,DeKalb Av,Bk,-73.981824,40.690635,['N/Q/R' 'B/D/F/M']
A42,20544,Hoyt-Schermerhorn Sts,Bk,-73.985001,40.688484,['A/C/E' 'G']
A34,18754,Canal St,M,-74.005229,40.720824,['A/C/E']
A32,18013,W 4 St-Wash Sq,M,-74.000495,40.732338,['A/C/E']
D21,17378,Broadway-Lafayette St,M,-73.996204,40.725297,['B/D/F/M']
G21,16751,Queens Plaza,Q,-73.937243,40.748973,['A/C/E' 'N/Q/R' 'B/D/F/M']
A31,16084,14 St,M,-74.00169,40.740893,['A/C/E']
A51,15953,Broadway Junction,Bk,-73.905316,40.678334,['A/C/E']
R31,15950,Atlantic Av-Barclays Ctr,Bk,-73.97881,40.683666,['B/D/F/M' 'N/Q/R']
M16,15750,Marcy Av,Bk,-73.957757,40.708359,['B/D/F/M' 'J/Z']
D15,15617,47-50 Sts-Rockefeller Ctr,M,-73.981329,40.758663,['B/D/F/M']
A27,15313,42 St-Port Authority Bus Terminal,M,-73.989735,40.757308,['A/C/E']
A40,15281,High St,Bk,-73.990531,40.699337,['A/C/E']
F26,15159,Fort Hamilton Pkwy,Bk,-73.975776,40.650782,['B/D/F/M' 'G']
F20,14879,Bergen St,Bk,-73.990862,40.686145,['B/D/F/M' 'G']
D17,14778,34 St-Herald Sq,M,-73.987823,40.749719,['B/D/F/M']
F25,14247,15 St-Prospect Park,Bk,-73.979493,40.660365,['B/D/F/M' 'G']
A28,13714,34 St-Penn Station,M,-73.993391,40.752287,['A/C/E']
A48,13601,Utica Av,Bk,-73.930729,40.679364,['A/C/E']
R36,13427,36 St,Bk,-74.003549,40.655144,['B/D/F/M' 'N/Q/R']
A12,13244,145 St,M,-73.944216,40.824783,['A/C/E' 'B/D/F/M']
B08,13002,Lexington Av/63 St,M,-73.966113,40.764629,['B/D/F/M' 'N/Q/R']
A38,12971,Fulton St,M,-74.007691,40.710197,['A/C/E']
702,12736,Mets-Willets Point,Q,-73.845625,40.754622,['7']
R14,12463,57 St-7 Av,M,-73.980658,40.764664,['N/Q/R']
A55,12457,Euclid Av,Bk,-73.872106,40.675377,['A/C/E']
M18,12446,Delancey St-Essex St,M,-73.987437,40.718315,['B/D/F/M' 'J/Z']
A46,12293,Nostrand Av,Bk,-73.950426,40.680438,['A/C/E']
F27,12232,Church Av,Bk,-73.979678,40.644041,['B/D/F/M' 'G']
F24,12092,7 Av,Bk,-73.980305,40.666271,['B/D/F/M' 'G']
Q01,11811,Canal St,M,-74.00046,40.718383,['N/Q/R']
725,11206,Times Sq-42 St,M,-73.987691,40.755477,['7']
F21,11053,Carroll St,Bk,-73.995048,40.680303,['B/D/F/M' 'G']
F23,10924,4 Av-9 St,Bk,-73.989779,40.670272,['B/D/F/M' 'G']
R20,10869,14 St-Union Sq,M,-73.990568,40.735736,['N/Q/R']
F06,10850,Kew Gardens-Union Tpke,Q,-73.831008,40.714441,['A/C/E' 'B/D/F/M']
D16,10692,42 St-Bryant Pk,M,-73.984569,40.754222,['B/D/F/M']
L28,10433,East 105 St,Bk,-73.899485,40.650573,['L']
B04,10246,21 St-Queensbridge,Q,-73.942836,40.754203,['B/D/F/M']
L06,10111,1 Av,M,-73.981628,40.730953,['L']
A36,10093,Chambers St,M,-74.008585,40.714111,['A/C/E']
F22,10084,Smith-9 Sts,Bk,-73.995959,40.67358,['B/D/F/M' 'G']
R17,9975,34 St-Herald Sq,M,-73.98795,40.749567,['N/Q/R']
H04,9927,Broad Channel,Q,-73.815925,40.608382,['A/C/E' nan]
D19,9846,14 St,M,-73.996209,40.738228,['B/D/F/M']
721,9833,Vernon Blvd-Jackson Av,Q,-73.953581,40.742626,['7']
L08,9679,Bedford Av,Bk,-73.956872,40.717304,['L']
R16,9444,Times Sq-42 St,M,-73.986754,40.754672,['N/Q/R']
F35,9016,Kings Hwy,Bk,-73.972361,40.603217,['B/D/F/M']
F16,8793,East Broadway,M,-73.990173,40.713715,['B/D/F/M']
F07,8761,75 Av,Q,-73.837324,40.718331,['A/C/E' 'B/D/F/M']
F09,8611,Court Sq-23 St,Q,-73.946,40.747846,['A/C/E' 'B/D/F/M']
D43,8454,Coney Island-Stillwell Av,Bk,-73.981233,40.577422,['B/D/F/M' 'N/Q/R']
705,8355,111 St,Q,-73.855334,40.75173,['7']
L22,8337,Broadway Junction,Bk,-73.90324,40.678856,['L']
A25,8214,50 St,M,-73.985984,40.762456,['A/C/E']
F18,8069,York St,Bk,-73.986751,40.701397,['B/D/F/M']
A09,8065,168 St,M,-73.939561,40.840719,['A/C/E']
R11,8019,Lexington Av/59 St,M,-73.967258,40.76266,['N/Q/R']
D42,8008,W 8 St-NY Aquarium,Bk,-73.975939,40.576127,['B/D/F/M' 'N/Q/R']
A61,7976,Rockaway Blvd,Q,-73.843853,40.680429,['A/C/E']
A33,7948,Spring St,M,-74.003739,40.726227,['A/C/E']
719,7917,Court Sq,Q,-73.945264,40.747023,['7']
M11,7899,Myrtle Av,Bk,-73.935657,40.697207,['B/D/F/M' 'J/Z']
B06,7697,Roosevelt Island,M,-73.95326,40.759145,['B/D/F/M']
F11,7678,Lexington Av/53 St,M,-73.969055,40.757552,['A/C/E' 'B/D/F/M']
716,7488,33 St-Rawson St,Q,-73.930997,40.744587,['7']
D25,7473,7 Av,Bk,-73.972367,40.67705,['N/Q/R' 'B/D/F/M']
R41,7409,59 St,Bk,-74.017881,40.641362,['N/Q/R']
F29,7242,Ditmas Av,Bk,-73.978172,40.636119,['B/D/F/M']
G09,7131,67 Av,Q,-73.852719,40.726523,['N/Q/R' 'B/D/F/M' 'A/C/E']
D14,7026,7 Av,M,-73.981637,40.762862,['A/C/E' 'B/D/F/M']
F05,6983,Briarwood,Q,-73.820574,40.709179,['A/C/E' 'B/D/F/M']
L19,6936,Halsey St,Q,-73.904084,40.695602,['L']
L17,6917,Myrtle-Wyckoff Avs,Bk,-73.911586,40.699814,['L']
L27,6901,New Lots Av,Bk,-73.899232,40.658733,['L']
R28,6867,Court St,Bk,-73.991777,40.6941,['N/Q/R']
G20,6836,36 St,Q,-73.928781,40.752039,['N/Q/R' 'B/D/F/M' 'A/C/E']
D24,6666,Atlantic Av-Barclays Ctr,Bk,-73.97689,40.68446,['N/Q/R' 'B/D/F/M']
F38,6646,Avenue X,Bk,-73.97425,40.58962,['B/D/F/M']
L14,6635,Morgan Av,Bk,-73.933147,40.706152,['L']
D26,6582,Prospect Park,Bk,-73.962246,40.661614,['N/Q/R' 'B/D/F/M' 'S']
F32,6568,Bay Pkwy,Bk,-73.975264,40.620769,['B/D/F/M']
L10,6551,Lorimer St,Bk,-73.950275,40.714063,['L']
D18,6549,23 St,M,-73.992821,40.742878,['B/D/F/M']
H03,6416,Howard Beach-JFK Airport,Q,-73.830301,40.660476,['A/C/E']
711,6370,69 St,Q,-73.896403,40.746325,['7']
F30,6352,18 Av,Bk,-73.976971,40.629755,['B/D/F/M']
F34,6338,Avenue P,Bk,-73.973022,40.608944,['B/D/F/M']
G06,6336,Sutphin Blvd-Archer Av-JFK Airport,Q,-73.807969,40.700486,['A/C/E' 'J/Z']
712,6328,Woodside-61 St,Q,-73.902984,40.74563,['7']
D35,6190,Kings Hwy,Bk,-73.957734,40.60867,['N/Q/R' 'B/D/F/M']
A30,6170,23 St,M,-73.998041,40.745906,['A/C/E']
L15,6165,Jefferson St,Bk,-73.922913,40.706607,['L']
F15,6123,Delancey St-Essex St,M,-73.988114,40.718611,['B/D/F/M']
R27,6097,Whitehall St-South Ferry,M,-74.012994,40.703087,['N/Q/R']
F14,6076,2 Av,M,-73.989938,40.723402,['B/D/F/M']
R15,6075,49 St,M,-73.984139,40.759901,['N/Q/R']
D39,6063,Sheepshead Bay,Bk,-73.954155,40.586896,['N/Q/R' 'B/D/F/M']
R13,5998,5 Av/59 St,M,-73.973347,40.764811,['N/Q/R']
723,5995,Grand Central-42 St,M,-73.976041,40.751431,['7']
707,5978,Junction Blvd,Q,-73.869527,40.749145,['7']
D22,5860,Grand St,M,-73.993753,40.718267,['B/D/F/M']
710,5847,74 St-Broadway,Q,-73.891394,40.746848,['7']
L20,5793,Wilson Av,Bk,-73.904046,40.688764,['L']
L16,5708,DeKalb Av,Bk,-73.918425,40.703811,['L']
724,5450,5 Av,M,-73.981963,40.753821,['7']
G19,5433,Steinway St,Q,-73.92074,40.756879,['N/Q/R' 'B/D/F/M' 'A/C/E']
L25,5431,Sutter Av,Bk,-73.901975,40.669367,['L']
709,5431,82 St-Jackson Hts,Q,-73.883697,40.747659,['7']
L03,5390,14 St-Union Sq.,M,-73.99073,40.734789,['L']
R24,5386,City Hall,M,-74.006978,40.713282,['N/Q/R']
L21,5359,Bushwick Av-Aberdeen St,Bk,-73.905249,40.682829,['L']
D28,5343,Church Av,Bk,-73.962982,40.650527,['N/Q/R' 'B/D/F/M']
A05,5302,190 St,M,-73.93418,40.859022,['A/C/E']
F33,5267,Avenue N,Bk,-73.974197,40.61514,['B/D/F/M']
A21,5180,81 St-Museum of Natural History,M,-73.972143,40.781433,['A/C/E' 'B/D/F/M']
L26,5161,Livonia Av,Bk,-73.900571,40.664038,['L']
L24,5147,Atlantic Av,Bk,-73.903097,40.675345,['L']
A03,5085,Dyckman St,M,-73.927271,40.865491,['A/C/E']
708,5083,90 St-Elmhurst Av,Q,-73.876613,40.748408,['7']
D31,5078,Newkirk Plaza,Bk,-73.962793,40.635082,['N/Q/R' 'B/D/F/M']
L02,5075,6 Av,M,-73.996786,40.737335,['L']
R22,5060,Prince St,M,-73.997702,40.724329,['N/Q/R']
L13,5017,Montrose Av,Bk,-73.93985,40.707739,['L']
A57,4988,Grant Av,Bk,-73.86505,40.677044,['A/C/E']
A14,4946,135 St,M,-73.947649,40.817894,['A/C/E' 'B/D/F/M']
F12,4910,5 Av/53 St,M,-73.975224,40.760167,['A/C/E' 'B/D/F/M']
G18,4862,46 St,Q,-73.913333,40.756312,['N/Q/R' 'B/D/F/M' 'A/C/E']
715,4852,40 St-Lowery St,Q,-73.924016,40.743781,['7']
G10,4830,63 Dr-Rego Park,Q,-73.861604,40.729846,['N/Q/R' 'B/D/F/M' 'A/C/E']
706,4797,103 St-Corona Plaza,Q,-73.8627,40.749865,['7']
A59,4797,80 St,Q,-73.858992,40.679371,['A/C/E']
L11,4759,Graham Av,Bk,-73.944053,40.714565,['L']
718,4715,Queensboro Plaza,Q,-73.940202,40.750582,['7']
G29,4666,Metropolitan Av,Bk,-73.951418,40.712792,['G']
D03,4621,Bedford Park Blvd,Bx,-73.887138,40.873244,['B/D/F/M']
713,4605,52 St,Q,-73.912549,40.744149,['7']
R23,4583,Canal St,M,-74.001775,40.719527,['N/Q/R']
G15,4559,65 St,Q,-73.898453,40.749669,['N/Q/R' 'B/D/F/M' 'A/C/E']
D13,4557,145 St,M,-73.944216,40.824783,['B/D/F/M']
B10,4554,57 St,M,-73.97745,40.763972,['B/D/F/M']
L12,4508,Grand St,Bk,-73.94067,40.711926,['L']
720,4459,Hunters Point Av,Q,-73.948916,40.742216,['7']
G11,4431,Woodhaven Blvd,Q,-73.869229,40.733106,['N/Q/R' 'B/D/F/M' 'A/C/E']
G26,4407,Greenpoint Av,Bk,-73.954449,40.731352,['G']
R21,4386,8 St-NYU,M,-73.992629,40.730328,['N/Q/R']
G16,4354,Northern Blvd,Q,-73.906006,40.752885,['N/Q/R' 'B/D/F/M' 'A/C/E']
L05,4347,3 Av,M,-73.986122,40.732849,['L']
A18,4325,103 St,M,-73.961454,40.796092,['A/C/E' 'B/D/F/M']
F02,4295,169 St,Q,-73.793604,40.71047,['B/D/F/M']
J20,4258,Crescent St,Bk,-73.873785,40.683194,['J/Z']
F36,4242,Avenue U,Bk,-73.973357,40.596063,['B/D/F/M']
J27,4217,Broadway Junction,Bk,-73.904512,40.679498,['J/Z']
G13,4185,Elmhurst Av,Q,-73.882017,40.742454,['N/Q/R' 'B/D/F/M' 'A/C/E']
A16,4146,116 St,M,-73.954882,40.805085,['A/C/E' 'B/D/F/M']
R26,4142,Rector St,M,-74.013342,40.70722,['N/Q/R']
R19,4106,23 St,M,-73.989344,40.741303,['N/Q/R']
635,4061,14 St-Union Sq,M,-73.989951,40.734673,['4 5 6']
R39,4041,45 St,Bk,-74.010006,40.648939,['N/Q/R']
718,4027,Queensboro Plaza,Q,-73.940202,40.750582,['7']
R44,4023,86 St,Bk,-74.028398,40.622687,['N/Q/R']
G28,4010,Nassau Av,Bk,-73.951277,40.724635,['G']
G12,4004,Grand Av-Newtown,Q,-73.877223,40.737015,['N/Q/R' 'B/D/F/M' 'A/C/E']
J24,3994,Alabama Av,Bk,-73.898654,40.676992,['J/Z']
R29,3973,Jay St-MetroTech,Bk,-73.985942,40.69218,['N/Q/R']
R35,3777,25 St,Bk,-73.998091,40.660397,['N/Q/R' 'B/D/F/M']
631,3735,Grand Central-42 St,M,-73.976848,40.751776,['4 5 6']
R18,3693,28 St,M,-73.988691,40.745494,['N/Q/R']
E01,3687,World Trade Center,M,-74.009781,40.712582,['A/C/E']
D04,3678,Kingsbridge Rd,Bx,-73.893509,40.866978,['B/D/F/M']
R34,3636,Prospect Av,Bk,-73.992872,40.665414,['N/Q/R' 'B/D/F/M']
F31,3635,Avenue I,Bk,-73.976127,40.625322,['B/D/F/M']
F04,3626,Sutphin Blvd,Q,-73.810708,40.70546,['B/D/F/M']
G33,3624,Bedford-Nostrand Avs,Bk,-73.953522,40.689627,['G']
G36,3618,Fulton St,Bk,-73.975375,40.687119,['G']
A43,3581,Lafayette Av,Bk,-73.973946,40.686113,['A/C/E']
M14,3565,Hewes St,Bk,-73.953431,40.70687,['B/D/F/M' 'J/Z']
G24,3497,21 St,Q,-73.949724,40.744065,['G']
714,3473,46 St-Bliss St,Q,-73.918435,40.743132,['7']
G34,3441,Classon Av,Bk,-73.96007,40.688873,['G']
A19,3441,96 St,M,-73.964696,40.791642,['A/C/E' 'B/D/F/M']
640,3412,Brooklyn Bridge-City Hall,M,-74.004131,40.713065,['4 5 6']
A07,3350,175 St,M,-73.939704,40.847391,['A/C/E']
M12,3337,Flushing Av,Bk,-73.941126,40.70026,['B/D/F/M' 'J/Z']
R32,3336,Union St,Bk,-73.98311,40.677316,['N/Q/R' 'B/D/F/M']
G35,3334,Clinton-Washington Avs,Bk,-73.966839,40.688089,['G']
A60,3334,88 St,Q,-73.85147,40.679843,['A/C/E']
D38,3328,Neck Rd,Bk,-73.955161,40.595246,['N/Q/R']
621,3235,125 St,M,-73.937594,40.804138,['4 5 6']
D11,3233,161 St-Yankee Stadium,Bx,-73.925651,40.827905,['B/D/F/M']
701,3163,Flushing-Main St,Q,-73.83003,40.7596,['7']
J12,3158,121 St,Q,-73.828294,40.700492,['J/Z']
G32,3158,Myrtle-Willoughby Avs,Bk,-73.949046,40.694568,['G']
D33,3137,Avenue J,Bk,-73.960803,40.625039,['N/Q/R']
M13,3036,Lorimer St,Bk,-73.947408,40.703869,['J/Z' 'B/D/F/M']
F03,3031,Parsons Blvd,Q,-73.803326,40.707564,['B/D/F/M' 'A/C/E']
A06,3018,181 St,M,-73.937969,40.851695,['A/C/E']
626,3016,86 St,M,-73.955589,40.779492,['4 5 6']
D34,3015,Avenue M,Bk,-73.959399,40.617618,['N/Q/R']
A47,2963,Kingston-Throop Avs,Bk,-73.940858,40.679921,['A/C/E']
F39,2909,Neptune Av,Bk,-73.974574,40.581011,['B/D/F/M']
J31,2860,Kosciuszko St,Bk,-73.928814,40.693342,['J/Z']
A45,2847,Franklin Av,Bk,-73.956848,40.68138,['A/C/E']
R25,2842,Cortlandt St,M,-74.011029,40.710668,['N/Q/R']
D41,2829,Ocean Pkwy,Bk,-73.968501,40.576312,['N/Q/R']
A44,2814,Clinton-Washington Avs,Bk,-73.965838,40.683263,['A/C/E']
D07,2814,Tremont Av,Bx,-73.905227,40.85041,['B/D/F/M']
G30,2746,Broadway,Bk,-73.950308,40.706092,['G']
J13,2670,111 St,Q,-73.836345,40.697418,['J/Z']
D12,2667,155 St,M,-73.938209,40.830135,['B/D/F/M']
R43,2644,77 St,Bk,-74.02551,40.629742,['N/Q/R']
A22,2632,72 St,M,-73.97641,40.775594,['A/C/E' 'B/D/F/M']
629,2632,59 St,M,-73.967967,40.762526,['4 5 6']
G31,2630,Flushing Av,Bk,-73.950234,40.700377,['G']
Q04,2556,86 St,M,-73.951787,40.777891,['N/Q/R']
Q03,2524,72 St,M,-73.958424,40.768799,['N/Q/R']
R40,2515,53 St,Bk,-74.014034,40.645069,['N/Q/R']
A50,2501,Rockaway Av,Bk,-73.911946,40.67834,['A/C/E']
J28,2495,Chauncey St,Bk,-73.910456,40.682893,['J/Z']
A49,2485,Ralph Av,Bk,-73.920786,40.678822,['A/C/E']
D09,2477,170 St,Bx,-73.9134,40.839306,['B/D/F/M']
J19,2475,Cypress Hills,Bk,-73.87255,40.689941,['J/Z']
239,2461,Franklin Avenue-Medgar Evers College,Bk,-73.958131,40.670682,['1 2 3' '4 5 6']
R09,2453,Queensboro Plaza,Q,-73.940202,40.750582,['N/Q/R']
726,2446,34 St-Hudson Yards,M,-74.00191,40.755882,['7']
R42,2409,Bay Ridge Av,Bk,-74.023377,40.634967,['N/Q/R']
A20,2400,86 St,M,-73.968916,40.785868,['A/C/E' 'B/D/F/M']
G05,2365,Jamaica Center-Parsons/Archer,Q,-73.801109,40.702147,['A/C/E' 'J/Z']
N02,2358,8 Av,Bk,-74.011719,40.635064,['N/Q/R']
G07,2343,Jamaica-Van Wyck,Q,-73.816859,40.702566,['A/C/E']
R45,2322,Bay Ridge-95 St,Bk,-74.030876,40.616622,['N/Q/R']
R33,2301,4 Av-9 St,Bk,-73.988302,40.670847,['N/Q/R' 'B/D/F/M']
M21,2293,Chambers St,M,-74.003401,40.713243,['J/Z']
M19,2258,Bowery,M,-73.993915,40.72028,['J/Z']
A02,2251,Inwood-207 St,M,-73.919899,40.868072,['A/C/E']
H06,2249,Beach 67 St,Q,-73.796924,40.590927,['A/C/E']
R03,2236,Astoria Blvd,Q,-73.917843,40.770258,['N/Q/R']
J29,2234,Halsey St,Bk,-73.916559,40.68637,['J/Z']
J30,2212,Gates Av,Bk,-73.92227,40.68963,['J/Z']
J21,2202,Norwood Av,Bk,-73.880039,40.68141,['J/Z']
A11,2163,155 St,M,-73.941514,40.830518,['A/C/E']
M20,2159,Canal St,M,-73.999892,40.718092,['J/Z']
D27,2142,Parkside Av,Bk,-73.961495,40.655292,['N/Q/R']
D10,2106,167 St,Bx,-73.91844,40.833771,['B/D/F/M']
M08,2083,Myrtle-Wyckoff Avs,Bk,-73.912385,40.69943,['B/D/F/M']
137,2076,Chambers St,M,-74.009266,40.715478,['1 2 3']
D05,2067,Fordham Rd,Bx,-73.897749,40.861296,['B/D/F/M']
235,2061,Atlantic Av-Barclays Ctr,Bk,-73.977666,40.684359,['4 5 6' '1 2 3']
D40,1983,Brighton Beach,Bk,-73.961376,40.577621,['N/Q/R' 'B/D/F/M']
D01,1982,Norwood-205 St,Bx,-73.878855,40.874811,['B/D/F/M']
J23,1941,Van Siclen Av,Bk,-73.891688,40.678024,['J/Z']
J16,1935,85 St-Forest Pkwy,Q,-73.86001,40.692435,['J/Z']
B12,1931,9 Av,Bk,-73.994324,40.646292,['B/D/F/M']
J15,1907,Woodhaven Blvd,Q,-73.851576,40.693879,['J/Z']
234,1868,Nevins St,Bk,-73.980492,40.688246,['4 5 6' '1 2 3']
A52,1863,Liberty Av,Bk,-73.896548,40.674542,['A/C/E']
M22,1852,Fulton St,M,-74.007582,40.710374,['J/Z']
H02,1843,Aqueduct-N Conduit Av,Q,-73.834058,40.668234,['A/C/E']
423,1821,Borough Hall,Bk,-73.990151,40.692404,['4 5 6']
D30,1804,Cortelyou Rd,Bk,-73.963891,40.640927,['N/Q/R']
127,1766,Times Sq-42 St,M,-73.987495,40.75529,['1 2 3']
420,1756,Bowling Green,M,-74.014065,40.704817,['4 5 6']
142,1749,South Ferry,M,-74.013664,40.702068,['1 2 3']
M10,1738,Central Av,Bk,-73.927397,40.697857,['B/D/F/M']
707,1733,Junction Blvd,Q,-73.869527,40.749145,['7']
A17,1729,Cathedral Pkwy (110 St),M,-73.958161,40.800603,['A/C/E' 'B/D/F/M']
H01,1723,Aqueduct Racetrack,Q,-73.835919,40.672097,['A/C/E']
A53,1718,Van Siclen Av,Bk,-73.890358,40.67271,['A/C/E']
409,1717,Burnside Av,Bx,-73.907684,40.853453,['4 5 6']
123,1704,72 St,M,-73.98197,40.778453,['1 2 3']
D37,1689,Avenue U,Bk,-73.955929,40.5993,['N/Q/R']
M04,1688,Fresh Pond Rd,Q,-73.895877,40.706186,['B/D/F/M']
213,1674,E 180 St,Bx,-73.873488,40.841894,['1 2 3' '4 5 6']
721,1673,Vernon Blvd-Jackson Av,Q,-73.953581,40.742626,['7']
D06,1667,182-183 Sts,Bx,-73.900741,40.856093,['B/D/F/M']
120,1653,96 St,M,-73.972323,40.793919,['1 2 3']
J17,1626,75 St-Elderts Ln,Q,-73.867139,40.691324,['J/Z']
J14,1607,104 St,Q,-73.84433,40.695178,['J/Z']
A54,1593,Shepherd Av,Bk,-73.88075,40.67413,['A/C/E']
608,1547,Parkchester,Bx,-73.860816,40.833226,['4 5 6']
132,1502,14 St,M,-74.000201,40.737826,['1 2 3']
416,1482,138 St-Grand Concourse,Bx,-73.929849,40.813224,['4 5 6']
637,1471,Bleecker St,M,-73.994659,40.725915,['4 5 6']
D32,1425,Avenue H,Bk,-73.961639,40.62927,['N/Q/R']
G22,1380,Court Sq,Q,-73.943832,40.746554,['G']
A64,1372,111 St,Q,-73.832163,40.684331,['A/C/E']
H07,1371,Beach 60 St,Q,-73.788522,40.592374,['A/C/E']
128,1352,34 St-Penn Station,M,-73.991057,40.750373,['1 2 3']
D08,1342,174-175 Sts,Bx,-73.910136,40.8459,['B/D/F/M']
M23,1333,Broad St,M,-74.011056,40.706476,['J/Z']
R06,1326,36 Av,Q,-73.929575,40.756804,['N/Q/R']
M01,1307,Middle Village-Metropolitan Av,Q,-73.889601,40.711396,['B/D/F/M']
A63,1291,104 St,Q,-73.837683,40.681711,['A/C/E']
F01,1274,Jamaica-179 St,Q,-73.783817,40.712646,['B/D/F/M' 'A/C/E']
A65,1265,Ozone Park-Lefferts Blvd,Q,-73.825798,40.685951,['A/C/E']
Q05,1256,96 St,M,-73.947152,40.784318,['N/Q/R']
250,1241,Crown Hts-Utica Av,Bk,-73.932942,40.668897,['4 5 6' '1 2 3']
H15,1215,Rockaway Park-Beach 116 St,Q,-73.835592,40.580903,['A/C/E' nan]
222,1214,149 St-Grand Concourse,Bx,-73.926718,40.81841,['1 2 3' '4 5 6']
M09,1214,Knickerbocker Av,Bk,-73.919711,40.698664,['B/D/F/M']
D29,1186,Beverley Rd,Bk,-73.964492,40.644031,['N/Q/R']
S30,1179,Tompkinsville,SI,-74.074835,40.636949,[nan]
619,1167,3 Av-138 St,Bx,-73.926138,40.810476,['4 5 6']
J22,1120,Cleveland St,Bk,-73.884639,40.679947,['J/Z']
H09,1093,Beach 36 St,Q,-73.768175,40.595398,['A/C/E']
N10,1079,86 St,Bk,-73.97823,40.592721,['N/Q/R']
101,1056,Van Cortlandt Park-242 St,Bx,-73.898583,40.889248,['1 2 3']
N07,1054,Bay Pkwy,Bk,-73.981848,40.611815,['N/Q/R']
N03,1043,Fort Hamilton Pkwy,Bk,-74.005351,40.631386,['N/Q/R']
247,1037,Flatbush Av-Brooklyn College,Bk,-73.947642,40.632836,['1 2 3' '4 5 6']
H10,1027,Beach 25 St,Q,-73.761353,40.600066,['A/C/E']
613,1010,Hunts Point Av,Bx,-73.890549,40.820948,['4 5 6']
241,1000,President Street-Medgar Evers College,Bk,-73.950683,40.667883,['4 5 6' '1 2 3']
418,986,Fulton St,M,-74.009509,40.710368,['4 5 6']
H14,983,Beach 105 St,Q,-73.827559,40.583209,['A/C/E' nan]
H12,982,Beach 90 St,Q,-73.813641,40.588034,['A/C/E' nan]
H08,981,Beach 44 St,Q,-73.776013,40.592943,['A/C/E']
413,971,167 St,Bx,-73.9214,40.835537,['4 5 6']
H11,959,Far Rockaway-Mott Av,Q,-73.755405,40.603995,['A/C/E']
414,944,161 St-Yankee Stadium,Bx,-73.925831,40.827994,['4 5 6']
415,910,149 St-Grand Concourse,Bx,-73.927351,40.818375,['4 5 6']
112,908,168 St-Washington Hts,M,-73.940133,40.840556,['1 2 3']
109,904,Dyckman St,M,-73.925536,40.860531,['1 2 3']
M06,899,Seneca Av,Q,-73.90774,40.702762,['B/D/F/M']
134,881,Houston St,M,-74.005367,40.728251,['1 2 3']
R04,843,30 Av,Q,-73.921479,40.766779,['N/Q/R']
636,836,Astor Pl,M,-73.99107,40.730054,['4 5 6']
601,830,Pelham Bay Park,Bx,-73.828121,40.852462,['4 5 6']
R01,818,Astoria-Ditmars Blvd,Q,-73.912034,40.775036,['N/Q/R']
221,815,3 Av-149 St,Bx,-73.917757,40.816109,['1 2 3' '4 5 6']
S27,788,Grasmere,SI,-74.084087,40.603117,[nan]
R08,786,39 Av-Dutch Kills,Q,-73.932755,40.752882,['N/Q/R']
106,785,Marble Hill-225 St,M,-73.909831,40.874561,['1 2 3']
M05,784,Forest Av,Q,-73.903077,40.704423,['B/D/F/M']
S21,771,Oakwood Heights,SI,-74.12632,40.56511,[nan]
632,748,33 St,M,-73.982076,40.746081,['4 5 6']
115,746,137 St-City College,M,-73.953676,40.822008,['1 2 3']
244,739,Church Av,Bk,-73.949575,40.650843,['1 2 3' '4 5 6']
S20,736,Bay Terrace,SI,-74.136907,40.5564,[nan]
630,733,51 St,M,-73.97192,40.757107,['4 5 6']
401,724,Woodlawn,Bx,-73.878751,40.886037,['4 5 6']
104,720,231 St,Bx,-73.904834,40.878856,['1 2 3']
108,718,207 St,M,-73.918822,40.864621,['1 2 3']
S24,714,Jefferson Av,SI,-74.103338,40.583591,[nan]
419,694,Wall St,M,-74.011862,40.707557,['4 5 6']
N06,691,20 Av,Bk,-73.985026,40.61741,['N/Q/R']
B23,689,Bay 50 St,Bk,-73.983765,40.588841,['B/D/F/M']
S16,687,Huguenot,SI,-74.191794,40.533674,[nan]
S31,674,St George,SI,-74.073643,40.643748,[nan]
N04,673,New Utrecht Av,Bk,-73.996353,40.624842,['N/Q/R']
138,671,WTC Cortlandt,M,-74.012188,40.711835,['1 2 3']
S19,664,Great Kills,SI,-74.151399,40.551231,[nan]
S11,658,Arthur Kill,SI,-74.242096,40.516578,[nan]
S17,651,Annadale,SI,-74.178217,40.54046,[nan]
R05,648,Broadway,Q,-73.925508,40.76182,['N/Q/R']
A10,644,163 St-Amsterdam Av,M,-73.939892,40.836013,['A/C/E']
S28,639,Clifton,SI,-74.071402,40.621319,[nan]
638,628,Spring St,M,-73.997141,40.722301,['4 5 6']
135,621,Canal St,M,-74.006277,40.722854,['1 2 3']
103,618,238 St,Bx,-73.90087,40.884667,['1 2 3']
N08,614,Kings Hwy,Bk,-73.980353,40.603923,['N/Q/R']
133,605,Christopher St-Sheridan Sq,M,-74.002906,40.733422,['1 2 3']
639,605,Canal St,M,-74.000193,40.718803,['4 5 6']
125,592,59 St-Columbus Circle,M,-73.981929,40.768247,['1 2 3']
S25,587,Dongan Hills,SI,-74.09609,40.588849,[nan]
107,582,215 St,M,-73.915279,40.869444,['1 2 3']
S22,581,New Dorp,SI,-74.11721,40.57348,[nan]
501,574,Eastchester-Dyre Av,Bx,-73.830834,40.8883,['4 5 6']
227,573,Central Park North (110 St),M,-73.951822,40.799075,['1 2 3']
405,563,Bedford Park Blvd-Lehman College,Bx,-73.890064,40.873412,['4 5 6']
246,554,Newkirk Av - Little Haiti,Bk,-73.948411,40.639967,['1 2 3' '4 5 6']
S14,544,Pleasant Plains,SI,-74.217847,40.52241,[nan]
S15,543,Prince's Bay,SI,-74.200064,40.525507,[nan]
245,541,Beverly Rd,Bk,-73.948959,40.645098,['4 5 6' '1 2 3']
628,540,68 St-Hunter College,M,-73.96387,40.768141,['4 5 6']
N05,534,18 Av,Bk,-73.990414,40.620671,['N/Q/R']
625,532,96 St,M,-73.95107,40.785672,['4 5 6']
402,531,Mosholu Pkwy,Bx,-73.884655,40.87975,['4 5 6']
126,527,50 St,M,-73.983849,40.761728,['1 2 3']
111,523,181 St,M,-73.933596,40.849505,['1 2 3']
N09,520,Avenue U,Bk,-73.979137,40.597473,['N/Q/R']
505,518,Morris Park,Bx,-73.860495,40.854364,['4 5 6']
634,516,23 St,M,-73.986599,40.739864,['4 5 6']
139,511,Rector St,M,-74.013783,40.707513,['1 2 3']
S18,505,Eltingville,SI,-74.16457,40.544601,[nan]
201,503,Wakefield-241 St,Bx,-73.85062,40.903125,['1 2 3' '4 5 6']
S29,499,Stapleton,SI,-74.075162,40.627915,[nan]
243,497,Winthrop St,Bk,-73.9502,40.656652,['4 5 6' '1 2 3']
627,489,77 St,M,-73.959874,40.77362,['4 5 6']
622,483,116 St,M,-73.941617,40.798629,['4 5 6']
231,478,Clark St,Bk,-73.993086,40.697466,['1 2 3']
124,478,66 St-Lincoln Center,M,-73.982209,40.77344,['1 2 3']
H13,473,Beach 98 St,Q,-73.820558,40.585307,['A/C/E' nan]
S13,473,Richmond Valley,SI,-74.229141,40.519631,[nan]
B17,469,71 St,Bk,-73.998864,40.619589,['B/D/F/M']
136,461,Franklin St,M,-74.006886,40.719318,['1 2 3']
248,450,Nostrand Av,Bk,-73.950466,40.669847,['1 2 3' '4 5 6']
S26,449,Old Town,SI,-74.087368,40.596612,[nan]
242,446,Sterling St,Bk,-73.95085,40.662742,['1 2 3' '4 5 6']
204,442,Nereid Av,Bx,-73.854376,40.898379,['1 2 3' '4 5 6']
B13,436,Fort Hamilton Pkwy,Bk,-73.994304,40.640914,['B/D/F/M']
238,433,Eastern Pkwy-Brooklyn Museum,Bk,-73.964375,40.671987,['1 2 3' '4 5 6']
237,431,Grand Army Plaza,Bk,-73.971046,40.675235,['1 2 3' '4 5 6']
131,431,18 St,M,-73.997871,40.74104,['1 2 3']
B18,430,79 St,Bk,-74.00061,40.613501,['B/D/F/M']
623,424,110 St,M,-73.94425,40.79502,['4 5 6']
B22,424,25 Av,Bk,-73.986829,40.597704,['B/D/F/M']
406,423,Kingsbridge Rd,Bx,-73.897174,40.86776,['4 5 6']
616,422,E 143 St-St Mary's St,Bx,-73.907657,40.808719,['4 5 6']
214,422,West Farms Sq-E Tremont Av,Bx,-73.880049,40.840295,['1 2 3' '4 5 6']
139,419,Rector St,M,-74.013783,40.707513,['1 2 3']
607,403,Castle Hill Av,Bx,-73.851222,40.834255,['4 5 6']
212,402,Bronx Park East,Bx,-73.868457,40.848828,['1 2 3' '4 5 6']
113,400,157 St,M,-73.94489,40.834041,['1 2 3']
B19,398,18 Av,Bk,-74.001736,40.607954,['B/D/F/M']
129,398,28 St,M,-73.993365,40.747215,['1 2 3']
220,397,Jackson Av,Bx,-73.907807,40.81649,['1 2 3' '4 5 6']
624,396,103 St,M,-73.947478,40.7906,['4 5 6']
633,393,28 St,M,-73.984264,40.74307,['4 5 6']
215,392,174 St,Bx,-73.887734,40.837288,['4 5 6' '1 2 3']
408,392,183 St,Bx,-73.903879,40.858407,['4 5 6']
B15,391,55 St,Bk,-73.995476,40.631435,['B/D/F/M']
255,387,Pennsylvania Av,Bk,-73.894895,40.664635,['4 5 6' '1 2 3']
257,386,New Lots Av,Bk,-73.884079,40.666235,['1 2 3' '4 5 6']
116,385,125 St,M,-73.958372,40.815581,['1 2 3']
612,384,Whitlock Av,Bx,-73.886283,40.826525,['4 5 6']
224,376,135 St,M,-73.94077,40.814229,['1 2 3']
251,366,Sutter Av-Rutland Rd,Bk,-73.92261,40.664717,['1 2 3' '4 5 6']
110,362,191 St,M,-73.929412,40.855225,['1 2 3']
236,362,Bergen St,Bk,-73.975098,40.680829,['1 2 3' '4 5 6']
604,359,Westchester Sq-E Tremont Av,Bx,-73.842952,40.839892,['4 5 6']
130,354,23 St,M,-73.995657,40.744081,['1 2 3']
216,352,Freeman St,Bx,-73.891865,40.829993,['1 2 3' '4 5 6']
614,350,Longwood Av,Bx,-73.896435,40.816104,['4 5 6']
503,344,Gun Hill Rd,Bx,-73.846384,40.869526,['4 5 6']
407,344,Fordham Rd,Bx,-73.901034,40.862803,['4 5 6']
S23,341,Grant City,SI,-74.109704,40.578965,[nan]
229,341,Fulton St,M,-74.006571,40.709416,['1 2 3']
B16,341,62 St,Bk,-73.996895,40.626472,['B/D/F/M']
208,341,Gun Hill Rd,Bx,-73.866256,40.87785,['1 2 3' '4 5 6']
217,337,Simpson St,Bx,-73.893064,40.824073,['4 5 6' '1 2 3']
114,336,145 St,M,-73.95036,40.826551,['1 2 3']
230,335,Wall St,M,-74.0091,40.706821,['1 2 3']
502,333,Baychester Av,Bx,-73.838591,40.878663,['4 5 6']
211,333,Pelham Pkwy,Bx,-73.867615,40.857192,['1 2 3' '4 5 6']
205,330,233 St,Bx,-73.857473,40.893193,['1 2 3' '4 5 6']
618,330,Brook Av,Bx,-73.91924,40.807566,['4 5 6']
252,319,Saratoga Av,Bk,-73.916327,40.661453,['4 5 6' '1 2 3']
119,316,103 St,M,-73.968379,40.799446,['1 2 3']
121,314,86 St,M,-73.976218,40.788644,['1 2 3']
603,314,Middletown Rd,Bx,-73.836322,40.843863,['4 5 6']
122,314,79 St,M,-73.979917,40.783934,['1 2 3']
207,313,219 St,Bx,-73.862633,40.883895,['1 2 3' '4 5 6']
219,310,Prospect Av,Bx,-73.90177,40.819585,['1 2 3' '4 5 6']
232,309,Borough Hall,Bk,-73.989998,40.693219,['1 2 3']
117,304,116 St-Columbia University,M,-73.96411,40.807722,['1 2 3']
602,304,Buhre Av,Bx,-73.832569,40.84681,['4 5 6']
B20,303,20 Av,Bk,-73.998168,40.604556,['B/D/F/M']
B21,301,Bay Pkwy,Bk,-73.993728,40.601875,['B/D/F/M']
412,300,170 St,Bx,-73.917791,40.840075,['4 5 6']
609,298,St Lawrence Av,Bx,-73.867618,40.831509,['4 5 6']
253,296,Rockaway Av,Bk,-73.908946,40.662549,['1 2 3' '4 5 6']
210,295,Allerton Av,Bx,-73.867352,40.865462,['1 2 3' '4 5 6']
611,295,Elder Av,Bx,-73.879159,40.828584,['4 5 6']
228,294,Park Place,M,-74.008811,40.713051,['1 2 3']
617,292,Cypress Av,Bx,-73.914042,40.805368,['4 5 6']
249,287,Kingston Av,Bk,-73.942161,40.669399,['4 5 6' '1 2 3']
256,286,Van Siclen Av,Bk,-73.889395,40.665449,['1 2 3' '4 5 6']
B14,282,50 St,Bk,-73.994791,40.63626,['B/D/F/M']
504,281,Pelham Pkwy,Bx,-73.855359,40.858985,['4 5 6']
S01,278,Franklin Av,Bk,-73.955827,40.680596,['S']
615,278,E 149 St,Bx,-73.904098,40.812118,['4 5 6']
218,264,Intervale Av,Bx,-73.896736,40.822181,['4 5 6' '1 2 3']
118,252,Cathedral Pkwy (110 St),M,-73.966847,40.803967,['1 2 3']
635,247,14 St-Union Sq,M,-73.989951,40.734673,['4 5 6']
233,245,Hoyt St,Bk,-73.985065,40.690545,['1 2 3']
206,245,225 St,Bx,-73.860341,40.888022,['1 2 3' '4 5 6']
411,242,Mt Eden Av,Bx,-73.914685,40.844434,['4 5 6']
410,232,176 St,Bx,-73.911794,40.84848,['4 5 6']
610,232,Morrison Av-Soundview,Bx,-73.874516,40.829521,['4 5 6']
225,231,125 St,M,-73.945495,40.807754,['1 2 3']
606,230,Zerega Av,Bx,-73.847036,40.836488,['4 5 6']
254,225,Junius St,Bk,-73.902447,40.663515,['1 2 3' '4 5 6']
209,215,Burke Av,Bx,-73.867164,40.871356,['1 2 3' '4 5 6']
302,215,145 St,M,-73.936245,40.820421,['1 2 3']
226,181,116 St,M,-73.949625,40.802098,['1 2 3']
301,170,Harlem-148 St,M,-73.93647,40.82388,['1 2 3']
S09,153,Tottenville,SI,-74.251961,40.512764,[nan]
S03,108,Park Pl,Bk,-73.957624,40.674772,['S']
S04,95,Botanic Garden,Bk,-73.959245,40.670343,['S']
