stop_id,Delay Count,Stop Name,Borough,GTFS Longitude,GTFS Latitude,branch,geometry
G14,34111,Jackson Hts-Roosevelt Av,Q,-73.891338,40.746644,['A/C/E' 'B/D/F/M' 'N/Q/R'],POINT (-8225546.120193666 4975043.23006155)
A24,29538,59 St-Columbus Circle,M,-73.981736,40.768296,['A/C/E' 'B/D/F/M'],POINT (-8235609.179522395 4978225.215133444)
G08,26348,Forest Hills-71 Av,Q,-73.844521,40.721691,['A/C/E' 'B/D/F/M' 'N/Q/R'],POINT (-8220334.475593197 4971377.413604884)
A41,24153,Jay St-MetroTech,Bk,-73.987342,40.692338,['A/C/E' 'B/D/F/M'],POINT (-8236233.236587783 4967066.956881289)
A15,23938,125 St,M,-73.952343,40.811109,['A/C/E' 'B/D/F/M'],POINT (-8232337.165729509 4984520.081171933)
D20,22830,W 4 St-Wash Sq,M,-74.000495,40.732338,['B/D/F/M'],POINT (-8237697.421850187 4972941.383939534)
R30,20995,DeKalb Av,Bk,-73.981824,40.690635,['N/Q/R' 'B/D/F/M'],POINT (-8235618.975637586 4966816.931444084)
A42,20544,Hoyt-Schermerhorn Sts,Bk,-73.985001,40.688484,['A/C/E' 'G'],POINT (-8235972.637659836 4966501.142152836)
A34,18754,Canal St,M,-74.005229,40.720824,['A/C/E'],POINT (-8238224.408319603 4971250.0683441395)
A32,18013,W 4 St-Wash Sq,M,-74.000495,40.732338,['A/C/E'],POINT (-8237697.421850187 4972941.383939534)
D21,17378,Broadway-Lafayette St,M,-73.996204,40.725297,['B/D/F/M'],POINT (-8237219.749915194 4971907.081933192)
G21,16751,Queens Plaza,Q,-73.937243,40.748973,['A/C/E' 'N/Q/R' 'B/D/F/M'],POINT (-8230656.24141853 4975385.450934071)
A31,16084,14 St,M,-74.00169,40.740893,['A/C/E'],POINT (-8237830.448641684 4974198.235348999)
A51,15953,Broadway Junction,Bk,-73.905316,40.678334,['A/C/E'],POINT (-8227102.144035974 4965011.1535331085)
R31,15950,Atlantic Av-Barclays Ctr,Bk,-73.97881,40.683666,['B/D/F/M' 'N/Q/R'],POINT (-8235283.458692334 4965793.84635824)
M16,15750,Marcy Av,Bk,-73.957757,40.708359,['B/D/F/M' 'J/Z'],POINT (-8232939.849452664 4969419.388135093)
D15,15617,47-50 Sts-Rockefeller Ctr,M,-73.981329,40.758663,['B/D/F/M'],POINT (-8235563.872489643 4976809.418293929)
A27,15313,42 St-Port Authority Bus Terminal,M,-73.989735,40.757308,['A/C/E'],POINT (-8236499.624129251 4976610.285505107)
A40,15281,High St,Bk,-73.990531,40.699337,['A/C/E'],POINT (-8236588.2344439225 4968094.580086009)
F26,15159,Fort Hamilton Pkwy,Bk,-73.975776,40.650782,['B/D/F/M' 'G'],POINT (-8234945.715357267 4960967.748405372)
F20,14879,Bergen St,Bk,-73.990862,40.686145,['B/D/F/M' 'G'],POINT (-8236625.081195377 4966157.764063948)
D17,14778,34 St-Herald Sq,M,-73.987823,40.749719,['B/D/F/M'],POINT (-8236286.781262855 4975495.06994378)
F25,14247,15 St-Prospect Park,Bk,-73.979493,40.660365,['B/D/F/M' 'G'],POINT (-8235359.489904547 4962373.916089387)
A28,13714,34 St-Penn Station,M,-73.993391,40.752287,['A/C/E'],POINT (-8236906.608187592 4975872.427359198)
A48,13601,Utica Av,Bk,-73.930729,40.679364,['A/C/E'],POINT (-8229931.106255503 4965162.344004922)
R36,13427,36 St,Bk,-74.003549,40.655144,['B/D/F/M' 'N/Q/R'],POINT (-8238037.39157507 4961607.784243869)
A12,13244,145 St,M,-73.944216,40.824783,['A/C/E' 'B/D/F/M'],POINT (-8231432.472227832 4986531.447613904)
B08,13002,Lexington Av/63 St,M,-73.966113,40.764629,['B/D/F/M' 'N/Q/R'],POINT (-8233870.035117733 4977686.238695233)
A38,12971,Fulton St,M,-74.007691,40.710197,['A/C/E'],POINT (-8238498.4769059345 4969689.305640543)
702,12736,Mets-Willets Point,Q,-73.845625,40.754622,['7'],POINT (-8220457.372311032 4976215.558999811)
R14,12463,57 St-7 Av,M,-73.980658,40.764664,['N/Q/R'],POINT (-8235489.177111322 4977691.382862092)
A55,12457,Euclid Av,Bk,-73.872106,40.675377,['A/C/E'],POINT (-8223405.22374673 4964577.117750073)
M18,12446,Delancey St-Essex St,M,-73.987437,40.718315,['B/D/F/M' 'J/Z'],POINT (-8236243.811939408 4970881.554898952)
A46,12293,Nostrand Av,Bk,-73.950426,40.680438,['A/C/E'],POINT (-8232123.766265658 4965319.995586765)
F27,12232,Church Av,Bk,-73.979678,40.644041,['B/D/F/M' 'G'],POINT (-8235380.084010343 4959978.724410005)
F24,12092,7 Av,Bk,-73.980305,40.666271,['B/D/F/M' 'G'],POINT (-8235449.88133107 4963240.637422679)
Q01,11811,Canal St,M,-74.00046,40.718383,['N/Q/R'],POINT (-8237693.525668009 4970891.542326145)
725,11206,Times Sq-42 St,M,-73.987691,40.755477,['7'],POINT (-8236272.087090069 4976341.205505592)
F21,11053,Carroll St,Bk,-73.995048,40.680303,['B/D/F/M' 'G'],POINT (-8237091.064583836 4965300.178907575)
F23,10924,4 Av-9 St,Bk,-73.989779,40.670272,['B/D/F/M' 'G'],POINT (-8236504.522186846 4963827.838510215)
R20,10869,14 St-Union Sq,M,-73.990568,40.735736,['N/Q/R'],POINT (-8236592.3532650815 4973440.579212532)
F06,10850,Kew Gardens-Union Tpke,Q,-73.831008,40.714441,['A/C/E' 'B/D/F/M'],POINT (-8218830.215314108 4970312.582142517)
D16,10692,42 St-Bryant Pk,M,-73.984569,40.754222,['B/D/F/M'],POINT (-8235924.547639812 4976156.777563609)
L28,10433,East 105 St,Bk,-73.899485,40.650573,['L'],POINT (-8226453.040085157 4960937.082905962)
B04,10246,21 St-Queensbridge,Q,-73.942836,40.754203,['B/D/F/M'],POINT (-8231278.851330537 4976153.985454187)
L06,10111,1 Av,M,-73.981628,40.730953,['L'],POINT (-8235597.15701739 4972737.922902851)
A36,10093,Chambers St,M,-74.008585,40.714111,['A/C/E'],POINT (-8238597.996530703 4970264.11671105)
F22,10084,Smith-9 Sts,Bk,-73.995959,40.67358,['B/D/F/M' 'G'],POINT (-8237192.476639949 4964313.359043883)
R17,9975,34 St-Herald Sq,M,-73.98795,40.749567,['N/Q/R'],POINT (-8236300.918838185 4975472.734603438)
H04,9927,Broad Channel,Q,-73.815925,40.608382,['A/C/E' nan],POINT (-8217151.1834344715 4954748.57894503)
D19,9846,14 St,M,-73.996209,40.738228,['B/D/F/M'],POINT (-8237220.306512646 4973806.691539921)
721,9833,Vernon Blvd-Jackson Av,Q,-73.953581,40.742626,['7'],POINT (-8232474.979259112 4974452.8574329065)
L08,9679,Bedford Av,Bk,-73.956872,40.717304,['L'],POINT (-8232841.331703312 4970733.0665598195)
R16,9444,Times Sq-42 St,M,-73.986754,40.754672,['N/Q/R'],POINT (-8236167.780727197 4976222.906704203)
F35,9016,Kings Hwy,Bk,-73.972361,40.603217,['B/D/F/M'],POINT (-8234565.559296209 4953991.25405467)
F16,8793,East Broadway,M,-73.990173,40.713715,['B/D/F/M'],POINT (-8236548.382066218 4970205.958510377)
F07,8761,75 Av,Q,-73.837324,40.718331,['A/C/E' 'B/D/F/M'],POINT (-8219533.309217957 4970883.904880904)
F09,8611,Court Sq-23 St,Q,-73.946,40.747846,['A/C/E' 'B/D/F/M'],POINT (-8231631.066199408 4975219.849212743)
D43,8454,Coney Island-Stillwell Av,Bk,-73.981233,40.577422,['B/D/F/M' 'N/Q/R'],POINT (-8235553.185818528 4950209.904003835)
705,8355,111 St,Q,-73.855334,40.75173,['7'],POINT (-8221538.173247144 4975790.577180506)
L22,8337,Broadway Junction,Bk,-73.90324,40.678856,['L'],POINT (-8226871.044773087 4965087.775985125)
A25,8214,50 St,M,-73.985984,40.762456,['A/C/E'],POINT (-8236082.064719286 4977366.864726591)
F18,8069,York St,Bk,-73.986751,40.701397,['B/D/F/M'],POINT (-8236167.446768723 4968397.058688481)
A09,8065,168 St,M,-73.939561,40.840719,['A/C/E'],POINT (-8230914.27999819 4988876.064555587)
R11,8019,Lexington Av/59 St,M,-73.967258,40.76266,['N/Q/R'],POINT (-8233997.495934691 4977396.846928403)
D42,8008,W 8 St-NY Aquarium,Bk,-73.975939,40.576127,['B/D/F/M' 'N/Q/R'],POINT (-8234963.860434268 4950020.105334536)
A61,7976,Rockaway Blvd,Q,-73.843853,40.680429,['A/C/E'],POINT (-8220260.114173346 4965318.674473571)
A33,7948,Spring St,M,-74.003739,40.726227,['A/C/E'],POINT (-8238058.5422783205 4972043.689900915)
719,7917,Court Sq,Q,-73.945264,40.747023,['7'],POINT (-8231549.135054183 4975098.91911654)
M11,7899,Myrtle Av,Bk,-73.935657,40.697207,['B/D/F/M' 'J/Z'],POINT (-8230479.6887061335 4967781.832920411)
B06,7697,Roosevelt Island,M,-73.95326,40.759145,['B/D/F/M'],POINT (-8232439.245702566 4976880.254700141)
F11,7678,Lexington Av/53 St,M,-73.969055,40.757552,['A/C/E' 'B/D/F/M'],POINT (-8234197.537059646 4976646.143803596)
716,7488,33 St-Rawson St,Q,-73.930997,40.744587,['7'],POINT (-8229960.9398790365 4974740.986557181)
D25,7473,7 Av,Bk,-73.972367,40.67705,['N/Q/R' 'B/D/F/M'],POINT (-8234566.227213155 4964822.682468463)
R41,7409,59 St,Bk,-74.017881,40.641362,['N/Q/R'],POINT (-8239632.822517119 4959585.695437457)
F29,7242,Ditmas Av,Bk,-73.978172,40.636119,['B/D/F/M'],POINT (-8235212.436857209 4958816.5544777475)
G09,7131,67 Av,Q,-73.852719,40.726523,['N/Q/R' 'B/D/F/M' 'A/C/E'],POINT (-8221247.0727787195 4972087.169826615)
D14,7026,7 Av,M,-73.981637,40.762862,['A/C/E' 'B/D/F/M'],POINT (-8235598.1588928085 4977426.535277733)
F05,6983,Briarwood,Q,-73.820574,40.709179,['A/C/E' 'B/D/F/M'],POINT (-8217668.70774717 4969539.807429255)
L19,6936,Halsey St,Q,-73.904084,40.695602,['L'],POINT (-8226964.9984233165 4967546.17792994)
L17,6917,Myrtle-Wyckoff Avs,Bk,-73.911586,40.699814,['L'],POINT (-8227800.117243248 4968164.619202022)
L27,6901,New Lots Av,Bk,-73.899232,40.658733,['L'],POINT (-8226424.876253988 4962134.429246773)
R28,6867,Court St,Bk,-73.991777,40.6941,['N/Q/R'],POINT (-8236726.93852945 4967325.6511122845)
G20,6836,36 St,Q,-73.928781,40.752039,['N/Q/R' 'B/D/F/M' 'A/C/E'],POINT (-8229714.255887438 4975835.984106985)
D24,6666,Atlantic Av-Barclays Ctr,Bk,-73.97689,40.68446,['N/Q/R' 'B/D/F/M'],POINT (-8235069.725270011 4965910.404246793)
F38,6646,Avenue X,Bk,-73.97425,40.58962,['B/D/F/M'],POINT (-8234775.841814318 4951997.855879961)
L14,6635,Morgan Av,Bk,-73.933147,40.706152,['L'],POINT (-8230200.276784242 4969095.291376357)
D26,6582,Prospect Park,Bk,-73.962246,40.661614,['N/Q/R' 'B/D/F/M' 'S'],POINT (-8233439.562646834 4962557.203789072)
F32,6568,Bay Pkwy,Bk,-73.975264,40.620769,['B/D/F/M'],POINT (-8234888.719777981 4956565.077597248)
L10,6551,Lorimer St,Bk,-73.950275,40.714063,['L'],POINT (-8232106.95702255 4970257.067213758)
D18,6549,23 St,M,-73.992821,40.742878,['B/D/F/M'],POINT (-8236843.15607784 4974489.883239371)
H03,6416,Howard Beach-JFK Airport,Q,-73.830301,40.660476,['A/C/E'],POINT (-8218751.5124341175 4962390.2049293555)
711,6370,69 St,Q,-73.896403,40.746325,['7'],POINT (-8226109.953414534 4974996.357461775)
F30,6352,18 Av,Bk,-73.976971,40.629755,['B/D/F/M'],POINT (-8235078.742148767 4957883.045494183)
F34,6338,Avenue P,Bk,-73.973022,40.608944,['B/D/F/M'],POINT (-8234639.1414796235 4954830.9864619225)
G06,6336,Sutphin Blvd-Archer Av-JFK Airport,Q,-73.807969,40.700486,['A/C/E' 'J/Z'],POINT (-8216265.525565721 4968263.291512053)
712,6328,Woodside-61 St,Q,-73.902984,40.74563,['7'],POINT (-8226842.546983444 4974894.237685932)
D35,6190,Kings Hwy,Bk,-73.957734,40.60867,['N/Q/R' 'B/D/F/M'],POINT (-8232937.289104376 4954790.809045048)
A30,6170,23 St,M,-73.998041,40.745906,['A/C/E'],POINT (-8237424.243819781 4974934.791598658)
L15,6165,Jefferson St,Bk,-73.922913,40.706607,['L'],POINT (-8229061.033115463 4969162.107001863)
F15,6123,Delancey St-Essex St,M,-73.988114,40.718611,['B/D/F/M'],POINT (-8236319.175234675 4970925.029656476)
R27,6097,Whitehall St-South Ferry,M,-74.012994,40.703087,['N/Q/R'],POINT (-8239088.804165613 4968645.215595229)
F14,6076,2 Av,M,-73.989938,40.723402,['B/D/F/M'],POINT (-8236522.221985882 4971628.730745297)
R15,6075,49 St,M,-73.984139,40.759901,['N/Q/R'],POINT (-8235876.680258771 4976991.360139514)
D39,6063,Sheepshead Bay,Bk,-73.954155,40.586896,['N/Q/R' 'B/D/F/M'],POINT (-8232538.876646826 4951598.55059592)
R13,5998,5 Av/59 St,M,-73.973347,40.764811,['N/Q/R'],POINT (-8234675.320314132 4977712.988392476)
723,5995,Grand Central-42 St,M,-73.976041,40.751431,['7'],POINT (-8234975.215022328 4975746.639934731)
707,5978,Junction Blvd,Q,-73.869527,40.749145,['7'],POINT (-8223118.130779974 4975410.724913018)
D22,5860,Grand St,M,-73.993753,40.718267,['B/D/F/M'],POINT (-8236946.905843258 4970874.504956488)
710,5847,74 St-Broadway,Q,-73.891394,40.746848,['7'],POINT (-8225552.354085151 4975073.205133503)
L20,5793,Wilson Av,Bk,-73.904046,40.688764,['L'],POINT (-8226960.768282665 4966542.248503484)
L16,5708,DeKalb Av,Bk,-73.918425,40.703811,['L'],POINT (-8228561.431240783 4968751.528527963)
724,5450,5 Av,M,-73.981963,40.753821,['7'],POINT (-8235634.449046805 4976097.849528793)
G19,5433,Steinway St,Q,-73.92074,40.756879,['N/Q/R' 'B/D/F/M' 'A/C/E'],POINT (-8228819.135861969 4976547.239881397)
L25,5431,Sutter Av,Bk,-73.901975,40.669367,['L'],POINT (-8226730.225617233 4963695.014386207)
709,5431,82 St-Jackson Hts,Q,-73.883697,40.747659,['7'],POINT (-8224695.527964514 4975192.371647583)
L03,5390,14 St-Union Sq.,M,-73.99073,40.734789,['L'],POINT (-8236610.38702259 4973301.454247474)
R24,5386,City Hall,M,-74.006978,40.713282,['N/Q/R'],POINT (-8238419.106109 4970142.366732305)
L21,5359,Bushwick Av-Aberdeen St,Bk,-73.905249,40.682829,['L'],POINT (-8227094.685630091 4965670.977644064)
D28,5343,Church Av,Bk,-73.962982,40.650527,['N/Q/R' 'B/D/F/M'],POINT (-8233521.493792059 4960930.33357449)
A05,5302,190 St,M,-73.93418,40.859022,['A/C/E'],POINT (-8230315.2698182305 4991569.626892243)
F33,5267,Avenue N,Bk,-73.974197,40.61514,['B/D/F/M'],POINT (-8234769.9418813065 4955739.567947191)
A21,5180,81 St-Museum of Natural History,M,-73.972143,40.781433,['A/C/E' 'B/D/F/M'],POINT (-8234541.291647216 4980156.338361343)
L26,5161,Livonia Av,Bk,-73.900571,40.664038,['L'],POINT (-8226573.93305216 4962912.92966323)
L24,5147,Atlantic Av,Bk,-73.903097,40.675345,['L'],POINT (-8226855.1260859035 4964572.420816116)
A03,5085,Dyckman St,M,-73.927271,40.865491,['A/C/E'],POINT (-8229546.16345634 4992521.815754781)
708,5083,90 St-Elmhurst Av,Q,-73.876613,40.748408,['7'],POINT (-8223906.940691735 4975302.429312135)
D31,5078,Newkirk Plaza,Bk,-73.962793,40.635082,['N/Q/R' 'B/D/F/M'],POINT (-8233500.454408299 4958664.4351450605)
L02,5075,6 Av,M,-73.996786,40.737335,['L'],POINT (-8237284.5378588345 4973675.494815401)
R22,5060,Prince St,M,-73.997702,40.724329,['N/Q/R'],POINT (-8237386.506512401 4971764.894162043)
L13,5017,Montrose Av,Bk,-73.93985,40.707739,['L'],POINT (-8230946.45133103 4969328.340384897)
A57,4988,Grant Av,Bk,-73.86505,40.677044,['A/C/E'],POINT (-8222619.753419691 4964821.8017710745)
A14,4946,135 St,M,-73.947649,40.817894,['A/C/E' 'B/D/F/M'],POINT (-8231814.632039725 4985518.063670078)
F12,4910,5 Av/53 St,M,-73.975224,40.760167,['A/C/E' 'B/D/F/M'],POINT (-8234884.26699835 4977030.453094632)
G18,4862,46 St,Q,-73.913333,40.756312,['N/Q/R' 'B/D/F/M' 'A/C/E'],POINT (-8227994.592393663 4976463.914471465)
715,4852,40 St-Lowery St,Q,-73.924016,40.743781,['7'],POINT (-8229183.818513808 4974622.560197865)
G10,4830,63 Dr-Rego Park,Q,-73.861604,40.729846,['N/Q/R' 'B/D/F/M' 'A/C/E'],POINT (-8222236.146454419 4972575.304021964)
706,4797,103 St-Corona Plaza,Q,-73.8627,40.749865,['7'],POINT (-8222358.152616328 4975516.523674024)
A59,4797,80 St,Q,-73.858992,40.679371,['A/C/E'],POINT (-8221945.379944467 4965163.371520976)
L11,4759,Graham Av,Bk,-73.944053,40.714565,['L'],POINT (-8231414.327150833 4970330.793457645)
718,4715,Queensboro Plaza,Q,-73.940202,40.750582,['7'],POINT (-8230985.635791788 4975621.882745286)
G29,4666,Metropolitan Av,Bk,-73.951418,40.712792,['G'],POINT (-8232234.195200525 4970070.404248993)
D03,4621,Bedford Park Blvd,Bx,-73.887138,40.873244,['B/D/F/M'],POINT (-8225078.578332333 4993663.122448002)
713,4605,52 St,Q,-73.912549,40.744149,['7'],POINT (-8227907.317912881 4974676.630615639)
R23,4583,Canal St,M,-74.001775,40.719527,['N/Q/R'],POINT (-8237839.910798402 4971059.56763086)
G15,4559,65 St,Q,-73.898453,40.749669,['N/Q/R' 'B/D/F/M' 'A/C/E'],POINT (-8226338.15837066 4975487.722786716)
D13,4557,145 St,M,-73.944216,40.824783,['B/D/F/M'],POINT (-8231432.472227832 4986531.447613904)
B10,4554,57 St,M,-73.97745,40.763972,['B/D/F/M'],POINT (-8235132.064184857 4977589.675837218)
L12,4508,Grand St,Bk,-73.94067,40.711926,['L'],POINT (-8231037.7333134785 4969943.222869474)
720,4459,Hunters Point Av,Q,-73.948916,40.742216,['7'],POINT (-8231955.6738345595 4974392.617333286)
G11,4431,Woodhaven Blvd,Q,-73.869229,40.733106,['N/Q/R' 'B/D/F/M' 'A/C/E'],POINT (-8223084.957571717 4973054.207480536)
G26,4407,Greenpoint Av,Bk,-73.954449,40.731352,['G'],POINT (-8232571.604577119 4972796.53687552)
R21,4386,8 St-NYU,M,-73.992629,40.730328,['N/Q/R'],POINT (-8236821.782735606 4972646.109742359)
G16,4354,Northern Blvd,Q,-73.906006,40.752885,['N/Q/R' 'B/D/F/M' 'A/C/E'],POINT (-8227178.954484622 4975960.303179642)
L05,4347,3 Av,M,-73.986122,40.732849,['L'],POINT (-8236097.426809015 4973016.452582903)
A18,4325,103 St,M,-73.961454,40.796092,['A/C/E' 'B/D/F/M'],POINT (-8233351.397610127 4982311.644700232)
F02,4295,169 St,Q,-73.793604,40.71047,['B/D/F/M'],POINT (-8214666.421080476 4969729.397396254)
J20,4258,Crescent St,Bk,-73.873785,40.683194,['J/Z'],POINT (-8223592.129171771 4965724.558195893)
F36,4242,Avenue U,Bk,-73.973357,40.596063,['B/D/F/M'],POINT (-8234676.433509039 4952942.386091424)
J27,4217,Broadway Junction,Bk,-73.904512,40.679498,['J/Z'],POINT (-8227012.643165376 4965182.013616672)
G13,4185,Elmhurst Av,Q,-73.882017,40.742454,['N/Q/R' 'B/D/F/M' 'A/C/E'],POINT (-8224508.511219982 4974427.585931267)
A16,4146,116 St,M,-73.954882,40.805085,['A/C/E' 'B/D/F/M'],POINT (-8232619.8059166325 4983634.117088335)
R26,4142,Rector St,M,-74.013342,40.70722,['N/Q/R'],POINT (-8239127.543348407 4969252.125258689)
R19,4106,23 St,M,-73.989344,40.741303,['N/Q/R'],POINT (-8236456.098208351 4974258.474250428)
635,4061,14 St-Union Sq,M,-73.989951,40.734673,['4 5 6'],POINT (-8236523.669139262 4973284.412677233)
R39,4041,45 St,Bk,-74.010006,40.648939,['N/Q/R'],POINT (-8238756.181527122 4960697.33776677)
718,4027,Queensboro Plaza,Q,-73.940202,40.750582,['7'],POINT (-8230985.635791788 4975621.882745286)
R44,4023,86 St,Bk,-74.028398,40.622687,['N/Q/R'],POINT (-8240803.569601792 4956846.3739109095)
G28,4010,Nassau Av,Bk,-73.951277,40.724635,['G'],POINT (-8232218.499152324 4971809.841725662)
G12,4004,Grand Av-Newtown,Q,-73.877223,40.737015,['N/Q/R' 'B/D/F/M' 'A/C/E'],POINT (-8223974.845581118 4973628.481860092)
J24,3994,Alabama Av,Bk,-73.898654,40.676992,['J/Z'],POINT (-8226360.533588308 4964814.169063691)
R29,3973,Jay St-MetroTech,Bk,-73.985942,40.69218,['N/Q/R'],POINT (-8236077.389300672 4967043.7598894695)
R35,3777,25 St,Bk,-73.998091,40.660397,['N/Q/R' 'B/D/F/M'],POINT (-8237429.80979432 4962378.611968399)
631,3735,Grand Central-42 St,M,-73.976848,40.751776,['4 5 6'],POINT (-8235065.049851399 4975797.336774315)
R18,3693,28 St,M,-73.988691,40.745494,['N/Q/R'],POINT (-8236383.4065808635 4974874.254660399)
E01,3687,World Trade Center,M,-74.009781,40.712582,['A/C/E'],POINT (-8238731.134641693 4970039.563346836)
D04,3678,Kingsbridge Rd,Bx,-73.893509,40.866978,['B/D/F/M'],POINT (-8225787.794808176 4992740.704282627)
R34,3636,Prospect Av,Bk,-73.992872,40.665414,['N/Q/R' 'B/D/F/M'],POINT (-8236848.833371871 4963114.865614807)
F31,3635,Avenue I,Bk,-73.976127,40.625322,['B/D/F/M'],POINT (-8234984.788498537 4957232.839525801)
F04,3626,Sutphin Blvd,Q,-73.810708,40.70546,['B/D/F/M'],POINT (-8216570.429651004 4968993.67376164)
G33,3624,Bedford-Nostrand Avs,Bk,-73.953522,40.689627,['G'],POINT (-8232468.4114091555 4966668.945235087)
G36,3618,Fulton St,Bk,-73.975375,40.687119,['G'],POINT (-8234901.07624146 4966300.751166726)
A43,3581,Lafayette Av,Bk,-73.973946,40.686113,['A/C/E'],POINT (-8234742.000689115 4966153.066371181)
M14,3565,Hewes St,Bk,-73.953431,40.70687,['B/D/F/M' 'J/Z'],POINT (-8232458.281335492 4969200.728110074)
G24,3497,21 St,Q,-73.949724,40.744065,['G'],POINT (-8232045.619983123 4974664.288428708)
714,3473,46 St-Bliss St,Q,-73.918435,40.743132,['7'],POINT (-8228562.544435691 4974527.2030434)
G34,3441,Classon Av,Bk,-73.96007,40.688873,['G'],POINT (-8233197.331434869 4966558.250665265)
A19,3441,96 St,M,-73.964696,40.791642,['A/C/E' 'B/D/F/M'],POINT (-8233712.295399278 4981657.312855311)
640,3412,Brooklyn Bridge-City Hall,M,-74.004131,40.713065,['4 5 6'],POINT (-8238102.179518711 4970110.497567217)
A07,3350,175 St,M,-73.939704,40.847391,['A/C/E'],POINT (-8230930.198685373 4989857.863751695)
M12,3337,Flushing Av,Bk,-73.941126,40.70026,['B/D/F/M' 'J/Z'],POINT (-8231088.49500128 4968230.106963361)
R32,3336,Union St,Bk,-73.98311,40.677316,['N/Q/R' 'B/D/F/M'],POINT (-8235762.132502746 4964861.726799008)
G35,3334,Clinton-Washington Avs,Bk,-73.966839,40.688089,['G'],POINT (-8233950.853068048 4966443.153130429)
A60,3334,88 St,Q,-73.85147,40.679843,['A/C/E'],POINT (-8221108.03473472 4965232.655709467)
D38,3328,Neck Rd,Bk,-73.955161,40.595246,['N/Q/R'],POINT (-8232650.864054565 4952822.610575585)
621,3235,125 St,M,-73.937594,40.804138,['4 5 6'],POINT (-8230695.3145598 4983494.846849095)
D11,3233,161 St-Yankee Stadium,Bx,-73.925651,40.827905,['B/D/F/M'],POINT (-8229365.825881255 4986990.733933728)
701,3163,Flushing-Main St,Q,-73.83003,40.7596,['7'],POINT (-8218721.34485211 4976947.123563181)
J12,3158,121 St,Q,-73.828294,40.700492,['J/Z'],POINT (-8218528.094216094 4968264.172519305)
G32,3158,Myrtle-Willoughby Avs,Bk,-73.949046,40.694568,['G'],POINT (-8231970.145368364 4967394.36332919)
D33,3137,Avenue J,Bk,-73.960803,40.625039,['N/Q/R'],POINT (-8233278.92862162 4957191.332241276)
M13,3036,Lorimer St,Bk,-73.947408,40.703869,['J/Z' 'B/D/F/M'],POINT (-8231787.804042444 4968760.045359866)
F03,3031,Parsons Blvd,Q,-73.803326,40.707564,['B/D/F/M' 'A/C/E'],POINT (-8215748.669169968 4969302.641576545)
A06,3018,181 St,M,-73.937969,40.851695,['A/C/E'],POINT (-8230737.059368845 4990491.25909025)
626,3016,86 St,M,-73.955589,40.779492,['4 5 6'],POINT (-8232698.508796625 4979870.98964817)
D34,3015,Avenue M,Bk,-73.959399,40.617618,['N/Q/R'],POINT (-8233122.636056547 4956102.965472652)
A47,2963,Kingston-Throop Avs,Bk,-73.940858,40.679921,['A/C/E'],POINT (-8231058.6613777485 4965244.105262427)
F39,2909,Neptune Av,Bk,-73.974574,40.581011,['B/D/F/M'],POINT (-8234811.909329335 4950735.936659922)
J31,2860,Kosciuszko St,Bk,-73.928814,40.693342,['J/Z'],POINT (-8229717.929430634 4967214.361836175)
A45,2847,Franklin Av,Bk,-73.956848,40.68138,['A/C/E'],POINT (-8232838.660035532 4965458.273087531)
R25,2842,Cortlandt St,M,-74.011029,40.710668,['N/Q/R'],POINT (-8238870.061366203 4969758.475036201)
D41,2829,Ocean Pkwy,Bk,-73.968501,40.576312,['N/Q/R'],POINT (-8234135.866061747 4950047.219205225)
A44,2814,Clinton-Washington Avs,Bk,-73.965838,40.683263,['A/C/E'],POINT (-8233839.422257765 4965734.687155105)
D07,2814,Tremont Av,Bx,-73.905227,40.85041,['B/D/F/M'],POINT (-8227092.236601293 4990302.148599562)
G30,2746,Broadway,Bk,-73.950308,40.706092,['G'],POINT (-8232110.630565745 4969086.480558706)
J13,2670,111 St,Q,-73.836345,40.697418,['J/Z'],POINT (-8219424.327436471 4967812.813531437)
D12,2667,155 St,M,-73.938209,40.830135,['B/D/F/M'],POINT (-8230763.7760466365 4987318.808829588)
R43,2644,77 St,Bk,-74.02551,40.629742,['N/Q/R'],POINT (-8240482.07891238 4957881.13866871)
A22,2632,72 St,M,-73.97641,40.775594,['A/C/E' 'B/D/F/M'],POINT (-8235016.291914431 4979297.965227895)
629,2632,59 St,M,-73.967967,40.762526,['4 5 6'],POINT (-8234076.421453664 4977377.1527266465)
G31,2630,Flushing Av,Bk,-73.950234,40.700377,['G'],POINT (-8232102.392923426 4968247.286560797)
Q04,2556,86 St,M,-73.951787,40.777891,['N/Q/R'],POINT (-8232275.272092627 4979635.631013517)
Q03,2524,72 St,M,-73.958424,40.768799,['N/Q/R'],POINT (-8233014.0995530225 4978299.148499792)
R40,2515,53 St,Bk,-74.014034,40.645069,['N/Q/R'],POINT (-8239204.576436037 4960129.543746992)
A50,2501,Rockaway Av,Bk,-73.911946,40.67834,['A/C/E'],POINT (-8227840.192259934 4965012.03424754)
J28,2495,Chauncey St,Bk,-73.910456,40.682893,['J/Z'],POINT (-8227674.326218651 4965680.372568925)
A49,2485,Ralph Av,Bk,-73.920786,40.678822,['A/C/E'],POINT (-8228824.256558547 4965082.785232434)
D09,2477,170 St,Bx,-73.9134,40.839306,['B/D/F/M'],POINT (-8228002.050799546 4988668.15123844)
J19,2475,Cypress Hills,Bk,-73.87255,40.689941,['J/Z'],POINT (-8223454.649600642 4966715.043873628)
239,2461,Franklin Avenue-Medgar Evers College,Bk,-73.958131,40.670682,['1 2 3' '4 5 6'],POINT (-8232981.48294222 4963888.013568565)
R09,2453,Queensboro Plaza,Q,-73.940202,40.750582,['N/Q/R'],POINT (-8230985.635791788 4975621.882745286)
726,2446,34 St-Hudson Yards,M,-74.00191,40.755882,['7'],POINT (-8237854.938929659 4976400.722835481)
R42,2409,Bay Ridge Av,Bk,-74.023377,40.634967,['N/Q/R'],POINT (-8240244.6344385175 4958647.565740687)
A20,2400,86 St,M,-73.968916,40.785868,['A/C/E' 'B/D/F/M'],POINT (-8234182.0636504255 4980808.3642692)
G05,2365,Jamaica Center-Parsons/Archer,Q,-73.801109,40.702147,['A/C/E' 'J/Z'],POINT (-8215501.873858879 4968507.1867161505)
N02,2358,8 Av,Bk,-74.011719,40.635064,['N/Q/R'],POINT (-8238946.871814851 4958661.794714632)
G07,2343,Jamaica-Van Wyck,Q,-73.816859,40.702566,['A/C/E'],POINT (-8217255.155838873 4968568.712114175)
R45,2322,Bay Ridge-95 St,Bk,-74.030876,40.616622,['N/Q/R'],POINT (-8241079.419299978 4955956.900924717)
R33,2301,4 Av-9 St,Bk,-73.988302,40.670847,['N/Q/R' 'B/D/F/M'],POINT (-8236340.103298945 4963912.230464753)
M21,2293,Chambers St,M,-74.003401,40.713243,['J/Z'],POINT (-8238020.916290432 4970136.639086684)
M19,2258,Bowery,M,-73.993915,40.72028,['J/Z'],POINT (-8236964.939600767 4971170.166282319)
A02,2251,Inwood-207 St,M,-73.919899,40.868072,['A/C/E'],POINT (-8228725.516170212 4992901.745786389)
H06,2249,Beach 67 St,Q,-73.796924,40.590927,['A/C/E'],POINT (-8215036.00178991 4952189.451965015)
R03,2236,Astoria Blvd,Q,-73.917843,40.770258,['N/Q/R'],POINT (-8228496.643297141 4978513.602523597)
J29,2234,Halsey St,Bk,-73.916559,40.68637,['J/Z'],POINT (-8228353.709070963 4966190.7947798995)
J30,2212,Gates Av,Bk,-73.92227,40.68963,['J/Z'],POINT (-8228989.454682883 4966669.385666911)
J21,2202,Norwood Av,Bk,-73.880039,40.68141,['J/Z'],POINT (-8224288.321267192 4965462.6768617015)
A11,2163,155 St,M,-73.941514,40.830518,['A/C/E'],POINT (-8231131.686963709 4987375.156435375)
M20,2159,Canal St,M,-73.999892,40.718092,['J/Z'],POINT (-8237630.296197239 4970848.802084306)
D27,2142,Parkside Av,Bk,-73.961495,40.655292,['N/Q/R'],POINT (-8233355.961709249 4961629.50100352)
D10,2106,167 St,Bx,-73.91844,40.833771,['B/D/F/M'],POINT (-8228563.101033146 4987853.756403)
M08,2083,Myrtle-Wyckoff Avs,Bk,-73.912385,40.69943,['B/D/F/M'],POINT (-8227889.061516391 4968108.235471784)
137,2076,Chambers St,M,-74.009266,40.715478,['1 2 3'],POINT (-8238673.805103934 4970464.882652813)
D05,2067,Fordham Rd,Bx,-73.897749,40.861296,['B/D/F/M'],POINT (-8226259.789449141 4991904.332241224)
235,2061,Atlantic Av-Barclays Ctr,Bk,-73.977666,40.684359,['4 5 6' '1 2 3'],POINT (-8235156.109194867 4965895.577536533)
D40,1983,Brighton Beach,Bk,-73.961376,40.577621,['N/Q/R' 'B/D/F/M'],POINT (-8233342.714689845 4950239.07030261)
D01,1982,Norwood-205 St,Bx,-73.878855,40.874811,['B/D/F/M'],POINT (-8224156.518990093 4993893.814239894)
J23,1941,Van Siclen Av,Bk,-73.891688,40.678024,['J/Z'],POINT (-8225585.082015444 4964965.650062037)
J16,1935,85 St-Forest Pkwy,Q,-73.86001,40.692435,['J/Z'],POINT (-8222058.703186094 4967081.198099722)
B12,1931,9 Av,Bk,-73.994324,40.646292,['B/D/F/M'],POINT (-8237010.469272502 4960308.97483617)
J15,1907,Woodhaven Blvd,Q,-73.851576,40.693879,['J/Z'],POINT (-8221119.834600743 4967293.203844296)
234,1868,Nevins St,Bk,-73.980492,40.688246,['4 5 6' '1 2 3'],POINT (-8235470.69807585 4966466.201890581)
A52,1863,Liberty Av,Bk,-73.896548,40.674542,['A/C/E'],POINT (-8226126.094740698 4964454.557867741)
M22,1852,Fulton St,M,-74.007582,40.710374,['J/Z'],POINT (-8238486.343081438 4969715.299177706)
H02,1843,Aqueduct-N Conduit Av,Q,-73.834058,40.668234,['A/C/E'],POINT (-8219169.739761027 4963528.729929954)
423,1821,Borough Hall,Bk,-73.990151,40.692404,['4 5 6'],POINT (-8236545.933037422 4967076.646780238)
D30,1804,Cortelyou Rd,Bk,-73.963891,40.640927,['N/Q/R'],POINT (-8233622.683209191 4959521.879231761)
127,1766,Times Sq-42 St,M,-73.987495,40.75529,['1 2 3'],POINT (-8236250.268469874 4976313.724786738)
420,1756,Bowling Green,M,-74.014065,40.704817,['4 5 6'],POINT (-8239208.027340252 4968899.25256021)
142,1749,South Ferry,M,-74.013664,40.702068,['1 2 3'],POINT (-8239163.388224444 4968495.586505473)
M10,1738,Central Av,Bk,-73.927397,40.697857,['B/D/F/M'],POINT (-8229560.18971218 4967877.271136132)
707,1733,Junction Blvd,Q,-73.869527,40.749145,['7'],POINT (-8223118.130779974 4975410.724913018)
A17,1729,Cathedral Pkwy (110 St),M,-73.958161,40.800603,['A/C/E' 'B/D/F/M'],POINT (-8232984.822526946 4982974.990806059)
H01,1723,Aqueduct Racetrack,Q,-73.835919,40.672097,['A/C/E'],POINT (-8219376.905333394 4964095.693746098)
A53,1718,Van Siclen Av,Bk,-73.890358,40.67271,['A/C/E'],POINT (-8225437.02709269 4964185.665396165)
409,1717,Burnside Av,Bx,-73.907684,40.853453,['4 5 6'],POINT (-8227365.748590173 4990749.985842918)
123,1704,72 St,M,-73.98197,40.778453,['1 2 3'],POINT (-8235635.228283242 4979718.248451523)
D37,1689,Avenue U,Bk,-73.955929,40.5993,['N/Q/R'],POINT (-8232736.357423494 4953416.95781739)
M04,1688,Fresh Pond Rd,Q,-73.895877,40.706186,['B/D/F/M'],POINT (-8226051.399362377 4969100.284176547)
213,1674,E 180 St,Bx,-73.873488,40.841894,['1 2 3' '4 5 6'],POINT (-8223559.067283005 4989048.961170584)
721,1673,Vernon Blvd-Jackson Av,Q,-73.953581,40.742626,['7'],POINT (-8232474.979259112 4974452.8574329065)
D06,1667,182-183 Sts,Bx,-73.900741,40.856093,['B/D/F/M'],POINT (-8226592.857365594 4991138.530381295)
120,1653,96 St,M,-73.972323,40.793919,['1 2 3'],POINT (-8234561.329155559 4981992.119423536)
J17,1626,75 St-Elderts Ln,Q,-73.867139,40.691324,['J/Z'],POINT (-8222852.2998359585 4966918.086003962)
J14,1607,104 St,Q,-73.84433,40.695178,['J/Z'],POINT (-8220313.213570455 4967483.924849286)
A54,1593,Shepherd Av,Bk,-73.88075,40.67413,['A/C/E'],POINT (-8224367.469425147 4964394.085772757)
608,1547,Parkchester,Bx,-73.860816,40.833226,['4 5 6'],POINT (-8222148.426695674 4987773.571248024)
132,1502,14 St,M,-74.000201,40.737826,['1 2 3'],POINT (-8237664.693919894 4973747.630758405)
416,1482,138 St-Grand Concourse,Bx,-73.929849,40.813224,['4 5 6'],POINT (-8229833.145103606 4984831.15835646)
637,1471,Bleecker St,M,-73.994659,40.725915,['4 5 6'],POINT (-8237047.761301918 4971997.859918311)
D32,1425,Avenue H,Bk,-73.961639,40.62927,['N/Q/R'],POINT (-8233371.991715925 4957811.906487604)
G22,1380,Court Sq,Q,-73.943832,40.746554,['G'],POINT (-8231389.725543369 4975030.0057943305)
A64,1372,111 St,Q,-73.832163,40.684331,['A/C/E'],POINT (-8218958.789325972 4965891.467165388)
H07,1371,Beach 60 St,Q,-73.788522,40.592374,['A/C/E'],POINT (-8214100.695428264 4952401.5753346775)
128,1352,34 St-Penn Station,M,-73.991057,40.750373,['1 2 3'],POINT (-8236646.78849608 4975591.171266894)
D08,1342,174-175 Sts,Bx,-73.910136,40.8459,['B/D/F/M'],POINT (-8227638.703981597 4989638.451308406)
M23,1333,Broad St,M,-74.011056,40.706476,['J/Z'],POINT (-8238873.066992453 4969142.869928825)
R06,1326,36 Av,Q,-73.929575,40.756804,['N/Q/R'],POINT (-8229802.643563128 4976536.217960992)
M01,1307,Middle Village-Metropolitan Av,Q,-73.889601,40.711396,['B/D/F/M'],POINT (-8225352.758238157 4969865.3875062745)
A63,1291,104 St,Q,-73.837683,40.681711,['A/C/E'],POINT (-8219573.272915152 4965506.861505586)
F01,1274,Jamaica-179 St,Q,-73.783817,40.712646,['B/D/F/M' 'A/C/E'],POINT (-8213576.937224081 4970048.962468616)
A65,1265,Ozone Park-Lefferts Blvd,Q,-73.825798,40.685951,['A/C/E'],POINT (-8218250.240767076 4966129.284336164)
Q05,1256,96 St,M,-73.947152,40.784318,['N/Q/R'],POINT (-8231759.306252802 4980580.481043124)
250,1241,Crown Hts-Utica Av,Bk,-73.932942,40.668897,['4 5 6' '1 2 3'],POINT (-8230177.456288628 4963626.034613087)
H15,1215,Rockaway Park-Beach 116 St,Q,-73.835592,40.580903,['A/C/E' nan],POINT (-8219340.503859905 4950720.106900939)
222,1214,149 St-Grand Concourse,Bx,-73.926718,40.81841,['1 2 3' '4 5 6'],POINT (-8229484.603777931 4985593.964525785)
M09,1214,Knickerbocker Av,Bk,-73.919711,40.698664,['B/D/F/M'],POINT (-8228704.588105944 4967995.762647417)
D29,1186,Beverley Rd,Bk,-73.964492,40.644031,['N/Q/R'],POINT (-8233689.586223157 4959977.25730724)
S30,1179,Tompkinsville,SI,-74.074835,40.636949,[nan],POINT (-8245972.912795758 4958938.310323006)
619,1167,3 Av-138 St,Bx,-73.926138,40.810476,['4 5 6'],POINT (-8229420.03847327 4984426.980566658)
J22,1120,Cleveland St,Bk,-73.884639,40.679947,['J/Z'],POINT (-8224800.390924842 4965247.921783058)
H09,1093,Beach 36 St,Q,-73.768175,40.595398,['A/C/E'],POINT (-8211835.677749094 4952844.894281663)
N10,1079,86 St,Bk,-73.97823,40.592721,['N/Q/R'],POINT (-8235218.893387674 4952452.444579109)
101,1056,Van Cortlandt Park-242 St,Bx,-73.898583,40.889248,['1 2 3'],POINT (-8226352.629904463 4996019.468389016)
N07,1054,Bay Pkwy,Bk,-73.981848,40.611815,['N/Q/R'],POINT (-8235621.647305364 4955251.979448211)
N03,1043,Fort Hamilton Pkwy,Bk,-74.005351,40.631386,['N/Q/R'],POINT (-8238237.989297479 4958122.281696374)
247,1037,Flatbush Av-Brooklyn College,Bk,-73.947642,40.632836,['1 2 3' '4 5 6'],POINT (-8231813.852803291 4958334.973600834)
H10,1027,Beach 25 St,Q,-73.761353,40.600066,['A/C/E'],POINT (-8211076.256182902 4953529.2632933995)
613,1010,Hunts Point Av,Bx,-73.890549,40.820948,['4 5 6'],POINT (-8225458.289115429 4985967.299421853)
241,1000,President Street-Medgar Evers College,Bk,-73.950683,40.667883,['4 5 6' '1 2 3'],POINT (-8232152.375374792 4963477.216077589)
418,986,Fulton St,M,-74.009509,40.710368,['4 5 6'],POINT (-8238700.855740197 4969714.418039722)
H14,983,Beach 105 St,Q,-73.827559,40.583209,['A/C/E' nan],POINT (-8218446.27439036 4951058.107122809)
H12,982,Beach 90 St,Q,-73.813641,40.588034,['A/C/E' nan],POINT (-8216896.929717502 4951765.365583058)
H08,981,Beach 44 St,Q,-73.776013,40.592943,['A/C/E'],POINT (-8212708.199917931 4952484.989306235)
413,971,167 St,Bx,-73.9214,40.835537,['4 5 6'],POINT (-8228892.606725894 4988113.590259471)
H11,959,Far Rockaway-Mott Av,Q,-73.755405,40.603995,['A/C/E'],POINT (-8210414.127851664 4954105.325579904)
414,944,161 St-Yankee Stadium,Bx,-73.925831,40.827994,['4 5 6'],POINT (-8229385.863389597 4987003.827294428)
415,910,149 St-Grand Concourse,Bx,-73.927351,40.818375,['4 5 6'],POINT (-8229555.0690156035 4985588.816193265)
112,908,168 St-Washington Hts,M,-73.940133,40.840556,['1 2 3'],POINT (-8230977.954746924 4988852.079990656)
109,904,Dyckman St,M,-73.925536,40.860531,['1 2 3'],POINT (-8229353.024139812 4991791.732193456)
M06,899,Seneca Av,Q,-73.90774,40.702762,['B/D/F/M'],POINT (-8227371.982481657 4968597.492624164)
134,881,Houston St,M,-74.005367,40.728251,['1 2 3'],POINT (-8238239.770409332 4972341.002442014)
R04,843,30 Av,Q,-73.921479,40.766779,['N/Q/R'],POINT (-8228901.4009656655 4978002.242544738)
636,836,Astor Pl,M,-73.99107,40.730054,['4 5 6'],POINT (-8236648.23564946 4972605.859124702)
601,830,Pelham Bay Park,Bx,-73.828121,40.852462,['4 5 6'],POINT (-8218508.835944187 4990604.138461809)
R01,818,Astoria-Ditmars Blvd,Q,-73.912034,40.775036,['N/Q/R'],POINT (-8227849.9883751245 4979215.939342059)
221,815,3 Av-149 St,Bx,-73.917757,40.816109,['1 2 3' '4 5 6'],POINT (-8228487.069820932 4985255.504217091)
S27,788,Grasmere,SI,-74.084087,40.603117,[nan],POINT (-8247002.840724578 4953976.592001196)
R08,786,39 Av-Dutch Kills,Q,-73.932755,40.752882,['N/Q/R'],POINT (-8230156.63954385 4975959.862329072)
106,785,Marble Hill-225 St,M,-73.909831,40.874561,['1 2 3'],POINT (-8227604.751536906 4993857.0091846185)
M05,784,Forest Av,Q,-73.903077,40.704423,['B/D/F/M'],POINT (-8226852.899696087 4968841.39616248)
S21,771,Oakwood Heights,SI,-74.12632,40.56511,[nan],POINT (-8251704.196779252 4948405.572843961)
632,748,33 St,M,-73.982076,40.746081,['4 5 6'],POINT (-8235647.028149266 4974960.505217466)
115,746,137 St-City College,M,-73.953676,40.822008,['1 2 3'],POINT (-8232485.554610737 4986123.227602737)
244,739,Church Av,Bk,-73.949575,40.650843,['1 2 3' '4 5 6'],POINT (-8232029.033378992 4960976.698641012)
S20,736,Bay Terrace,SI,-74.136907,40.5564,[nan],POINT (-8252882.736228278 4947129.31744834)
630,733,51 St,M,-73.97192,40.757107,['4 5 6'],POINT (-8234516.467400769 4976580.746595792)
401,724,Woodlawn,Bx,-73.878751,40.886037,['4 5 6'],POINT (-8224144.94176305 4995546.651712682)
104,720,231 St,Bx,-73.904834,40.878856,['1 2 3'],POINT (-8227048.488041411 4994489.339352658)
108,718,207 St,M,-73.918822,40.864621,['1 2 3'],POINT (-8228605.625078629 4992393.752788824)
S24,714,Jefferson Av,SI,-74.103338,40.583591,[nan],POINT (-8249145.852241838 4951114.099611574)
419,694,Wall St,M,-74.011862,40.707557,['4 5 6'],POINT (-8238962.790502034 4969301.613625616)
N06,691,20 Av,Bk,-73.985026,40.61741,['N/Q/R'],POINT (-8235975.420647106 4956072.461853026)
B23,689,Bay 50 St,Bk,-73.983765,40.588841,['B/D/F/M'],POINT (-8235835.046769216 4951883.6622897675)
S16,687,Huguenot,SI,-74.191794,40.533674,[nan],POINT (-8258992.729119449 4943800.1127519)
S31,674,St George,SI,-74.073643,40.643748,[nan],POINT (-8245840.219962733 4959935.738390131)
N04,673,New Utrecht Av,Bk,-73.996353,40.624842,['N/Q/R'],POINT (-8237236.3365193205 4957162.43858167)
138,671,WTC Cortlandt,M,-74.012188,40.711835,['1 2 3'],POINT (-8238999.080656033 4969929.8586404165)
S19,664,Great Kills,SI,-74.151399,40.551231,[nan],POINT (-8254495.978288855 4946371.99478847)
S11,658,Arthur Kill,SI,-74.242096,40.516578,[nan],POINT (-8264592.3221453335 4941296.408987804)
S17,651,Annadale,SI,-74.178217,40.54046,[nan],POINT (-8257481.344392949 4944794.097393341)
R05,648,Broadway,Q,-73.925508,40.76182,['N/Q/R'],POINT (-8229349.9071940705 4977273.391393957)
A10,644,163 St-Amsterdam Av,M,-73.939892,40.836013,['A/C/E'],POINT (-8230951.126749642 4988183.625937289)
S28,639,Clifton,SI,-74.071402,40.621319,[nan],POINT (-8245590.752983866 4956645.740469127)
638,628,Spring St,M,-73.997141,40.722301,['4 5 6'],POINT (-8237324.056278066 4971467.011610563)
135,621,Canal St,M,-74.006277,40.722854,['1 2 3'],POINT (-8238341.071145954 4971548.238053207)
103,618,238 St,Bx,-73.90087,40.884667,['1 2 3'],POINT (-8226607.217579907 4995344.927506436)
N08,614,Kings Hwy,Bk,-73.980353,40.603923,['N/Q/R'],POINT (-8235455.224666629 4954094.768776315)
133,605,Christopher St-Sheridan Sq,M,-74.002906,40.733422,['1 2 3'],POINT (-8237965.813142489 4973100.6300448375)
639,605,Canal St,M,-74.000193,40.718803,['4 5 6'],POINT (-8237663.803363968 4970953.229602557)
125,592,59 St-Columbus Circle,M,-73.981929,40.768247,['1 2 3'],POINT (-8235630.664184119 4978218.012906996)
S25,587,Dongan Hills,SI,-74.09609,40.588849,[nan],POINT (-8248339.00857257 4951884.835002804)
107,582,215 St,M,-73.915279,40.869444,['1 2 3'],POINT (-8228211.220122748 4993103.713846098)
S22,581,New Dorp,SI,-74.11721,40.57348,[nan],POINT (-8250690.0762181245 4949632.165351871)
501,574,Eastchester-Dyre Av,Bx,-73.830834,40.8883,['4 5 6'],POINT (-8218810.84572271 4995879.873909538)
227,573,Central Park North (110 St),M,-73.951822,40.799075,['1 2 3'],POINT (-8232279.168274807 4982750.292153)
405,563,Bedford Park Blvd-Lehman College,Bx,-73.890064,40.873412,['4 5 6'],POINT (-8225404.299162394 4993687.854937827)
246,554,Newkirk Av - Little Haiti,Bk,-73.948411,40.639967,['1 2 3' '4 5 6'],POINT (-8231899.457491709 4959381.044939071)
S14,544,Pleasant Plains,SI,-74.217847,40.52241,[nan],POINT (-8261892.935813088 4942150.431768764)
S15,543,Prince's Bay,SI,-74.200064,40.525507,[nan],POINT (-8259913.34130831 4942603.97852987)
245,541,Beverly Rd,Bk,-73.948959,40.645098,['4 5 6' '1 2 3'],POINT (-8231960.460572665 4960133.798411783)
628,540,68 St-Hunter College,M,-73.96387,40.768141,['4 5 6'],POINT (-8233620.345499883 4978202.432598559)
N05,534,18 Av,Bk,-73.990414,40.620671,['N/Q/R'],POINT (-8236575.210063499 4956550.705009788)
625,532,96 St,M,-73.95107,40.785672,['4 5 6'],POINT (-8232195.456017729 4980779.547773958)
402,531,Mosholu Pkwy,Bx,-73.884655,40.87975,['4 5 6'],POINT (-8224802.172036693 4994620.963410205)
126,527,50 St,M,-73.983849,40.761728,['1 2 3'],POINT (-8235844.397606443 4977259.870168315)
111,523,181 St,M,-73.933596,40.849505,['1 2 3'],POINT (-8230250.2592356065 4990168.964034763)
N09,520,Avenue U,Bk,-73.979137,40.597473,['N/Q/R'],POINT (-8235319.860165824 4953149.101256795)
505,518,Morris Park,Bx,-73.860495,40.854364,['4 5 6'],POINT (-8222112.693139128 4990884.0613942705)
634,516,23 St,M,-73.986599,40.739864,['4 5 6'],POINT (-8236150.526206124 4974047.052034152)
139,511,Rector St,M,-74.013783,40.707513,['1 2 3'],POINT (-8239176.635243849 4969295.152222248)
S18,505,Eltingville,SI,-74.16457,40.544601,[nan],POINT (-8255962.167302093 4945400.703067325)
201,503,Wakefield-241 St,Bx,-73.85062,40.903125,['1 2 3' '4 5 6'],POINT (-8221013.413167546 4998063.107257198)
S29,499,Stapleton,SI,-74.075162,40.627915,[nan],POINT (-8246009.314269248 4957613.160042351)
243,497,Winthrop St,Bk,-73.9502,40.656652,['4 5 6' '1 2 3'],POINT (-8232098.608060738 4961829.062671852)
627,489,77 St,M,-73.959874,40.77362,['4 5 6'],POINT (-8233175.512814674 4979007.7907240745)
622,483,116 St,M,-73.941617,40.798629,['4 5 6'],POINT (-8231143.15287126 4982684.707003031)
231,478,Clark St,Bk,-73.993086,40.697466,['1 2 3'],POINT (-8236872.6557428995 4967819.861267076)
124,478,66 St-Lincoln Center,M,-73.982209,40.77344,['1 2 3'],POINT (-8235661.833641541 4978981.3314718)
H13,473,Beach 98 St,Q,-73.820558,40.585307,['A/C/E' nan],POINT (-8217666.926635318 4951365.630024264)
S13,473,Richmond Valley,SI,-74.229141,40.519631,[nan],POINT (-8263150.178142106 4941743.4730324345)
B17,469,71 St,Bk,-73.998864,40.619589,['B/D/F/M'],POINT (-8237515.8597607035 4956392.021313073)
136,461,Franklin St,M,-74.006886,40.719318,['1 2 3'],POINT (-8238408.864715845 4971028.870484608)
248,450,Nostrand Av,Bk,-73.950466,40.669847,['1 2 3' '4 5 6'],POINT (-8232128.219045291 4963765.46231588)
S26,449,Old Town,SI,-74.087368,40.596612,[nan],POINT (-8247368.079973871 4953022.8725417955)
242,446,Sterling St,Bk,-73.95085,40.662742,['1 2 3' '4 5 6'],POINT (-8232170.965729755 4962722.737983697)
204,442,Nereid Av,Bx,-73.854376,40.898379,['1 2 3' '4 5 6'],POINT (-8221431.529174964 4997364.124806353)
B13,436,Fort Hamilton Pkwy,Bk,-73.994304,40.640914,['B/D/F/M'],POINT (-8237008.242882686 4959519.972087188)
238,433,Eastern Pkwy-Brooklyn Museum,Bk,-73.964375,40.671987,['1 2 3' '4 5 6'],POINT (-8233676.561842734 4964079.548839329)
237,431,Grand Army Plaza,Bk,-73.971046,40.675235,['1 2 3' '4 5 6'],POINT (-8234419.174165816 4964556.275122839)
131,431,18 St,M,-73.997871,40.74104,['1 2 3'],POINT (-8237405.319506346 4974219.833156326)
B18,430,79 St,Bk,-74.00061,40.613501,['B/D/F/M'],POINT (-8237710.223591628 4955499.216779508)
623,424,110 St,M,-73.94425,40.79502,['4 5 6'],POINT (-8231436.257090518 4982154.012883905)
B22,424,25 Av,Bk,-73.986829,40.597704,['B/D/F/M'],POINT (-8236176.129689005 4953182.967773991)
406,423,Kingsbridge Rd,Bx,-73.897174,40.86776,['4 5 6'],POINT (-8226195.780741936 4992855.81777373)
616,422,E 143 St-St Mary's St,Bx,-73.907657,40.808719,['4 5 6'],POINT (-8227362.742963921 4984168.568532601)
214,422,West Farms Sq-E Tremont Av,Bx,-73.880049,40.840295,['1 2 3' '4 5 6'],POINT (-8224289.4344621 4988813.6753806835)
139,419,Rector St,M,-74.013783,40.707513,['1 2 3'],POINT (-8239176.635243849 4969295.152222248)
607,403,Castle Hill Av,Bx,-73.851222,40.834255,['4 5 6'],POINT (-8221080.427501003 4987924.967258388)
212,402,Bronx Park East,Bx,-73.868457,40.848828,['1 2 3' '4 5 6'],POINT (-8222999.018924825 4990069.334339716)
113,400,157 St,M,-73.94489,40.834041,['1 2 3'],POINT (-8231507.5015646275 4987893.481402843)
B19,398,18 Av,Bk,-74.001736,40.607954,['B/D/F/M'],POINT (-8237835.569338261 4954685.820660367)
129,398,28 St,M,-73.993365,40.747215,['1 2 3'],POINT (-8236903.71388083 4975127.131107203)
220,397,Jackson Av,Bx,-73.907807,40.81649,['1 2 3' '4 5 6'],POINT (-8227379.44088754 4985311.54572578)
624,396,103 St,M,-73.947478,40.7906,['4 5 6'],POINT (-8231795.596406801 4981504.10261173)
633,393,28 St,M,-73.984264,40.74307,['4 5 6'],POINT (-8235890.59519512 4974518.093471789)
215,392,174 St,Bx,-73.887734,40.837288,['4 5 6' '1 2 3'],POINT (-8225144.924748845 4988371.223980382)
408,392,183 St,Bx,-73.903879,40.858407,['4 5 6'],POINT (-8226942.1779277045 4991479.108290348)
B15,391,55 St,Bk,-73.995476,40.631435,['B/D/F/M'],POINT (-8237138.709325896 4958129.469140502)
255,387,Pennsylvania Av,Bk,-73.894895,40.664635,['4 5 6' '1 2 3'],POINT (-8225942.083622417 4963000.542351493)
257,386,New Lots Av,Bk,-73.884079,40.666235,['1 2 3' '4 5 6'],POINT (-8224738.052009998 4963235.35409368)
116,385,125 St,M,-73.958372,40.815581,['1 2 3'],POINT (-8233008.310939501 4985177.840926105)
612,384,Whitlock Av,Bx,-73.886283,40.826525,['4 5 6'],POINT (-8224983.400167706 4986787.715533361)
224,376,135 St,M,-73.94077,40.814229,['1 2 3'],POINT (-8231048.865262558 4984978.978650217)
251,366,Sutter Av-Rutland Rd,Bk,-73.92261,40.664717,['1 2 3' '4 5 6'],POINT (-8229027.303309754 4963012.57631633)
110,362,191 St,M,-73.929412,40.855225,['1 2 3'],POINT (-8229784.498486129 4991010.779938227)
236,362,Bergen St,Bk,-73.975098,40.680829,['1 2 3' '4 5 6'],POINT (-8234870.240742511 4965377.390787763)
604,359,Westchester Sq-E Tremont Av,Bx,-73.842952,40.839892,['4 5 6'],POINT (-8220159.815312142 4988754.376605597)
130,354,23 St,M,-73.995657,40.744081,['1 2 3'],POINT (-8237158.858153728 4974666.639320255)
216,352,Freeman St,Bx,-73.891865,40.829993,['1 2 3' '4 5 6'],POINT (-8225604.785565313 4987297.917632864)
614,350,Longwood Av,Bx,-73.896435,40.816104,['4 5 6'],POINT (-8226113.515638239 4985254.768766362)
503,344,Gun Hill Rd,Bx,-73.846384,40.869526,['4 5 6'],POINT (-8220541.863804544 4993115.784955956)
407,344,Fordham Rd,Bx,-73.901034,40.862803,['4 5 6'],POINT (-8226625.473976397 4992126.150780306)
S23,341,Grant City,SI,-74.109704,40.578965,[nan],POINT (-8249854.512120229 4950436.05501422)
229,341,Fulton St,M,-74.006571,40.709416,['1 2 3'],POINT (-8238373.799076246 4969574.611818546)
B16,341,62 St,Bk,-73.996895,40.626472,['B/D/F/M'],POINT (-8237296.671683331 4957401.5105127)
208,341,Gun Hill Rd,Bx,-73.866256,40.87785,['1 2 3' '4 5 6'],POINT (-8222754.0047255885 4994341.227605992)
217,337,Simpson St,Bx,-73.893064,40.824073,['4 5 6' '1 2 3'],POINT (-8225738.257634775 4986427.00050757)
114,336,145 St,M,-73.95036,40.826551,['1 2 3'],POINT (-8232116.419179266 4986791.540478667)
230,335,Wall St,M,-74.0091,40.706821,['1 2 3'],POINT (-8238655.326068464 4969193.532530824)
502,333,Baychester Av,Bx,-73.838591,40.878663,['4 5 6'],POINT (-8219674.351012792 4994460.924101515)
211,333,Pelham Pkwy,Bx,-73.867615,40.857192,['1 2 3' '4 5 6'],POINT (-8222905.287913578 4991300.281327501)
205,330,233 St,Bx,-73.857473,40.893193,['1 2 3' '4 5 6'],POINT (-8221776.285637951 4996600.397275075)
618,330,Brook Av,Bx,-73.91924,40.807566,['4 5 6'],POINT (-8228652.15662578 4983998.993949653)
252,319,Saratoga Av,Bk,-73.916327,40.661453,['4 5 6' '1 2 3'],POINT (-8228327.882949099 4962533.577239584)
119,316,103 St,M,-73.968379,40.799446,['1 2 3'],POINT (-8234122.2850838695 4982804.848745776)
121,314,86 St,M,-73.976218,40.788644,['1 2 3'],POINT (-8234994.918572199 4981216.509069281)
603,314,Middletown Rd,Bx,-73.836322,40.843863,['4 5 6'],POINT (-8219421.767088182 4989338.698625382)
122,314,79 St,M,-73.979917,40.783934,['1 2 3'],POINT (-8235406.689368644 4980524.025633644)
207,313,219 St,Bx,-73.862633,40.883895,['1 2 3' '4 5 6'],POINT (-8222350.694210445 4995231.257019575)
219,310,Prospect Av,Bx,-73.90177,40.819585,['1 2 3' '4 5 6'],POINT (-8226707.405121621 4985766.802979668)
232,309,Borough Hall,Bk,-73.989998,40.693219,['1 2 3'],POINT (-8236528.901155329 4967196.303141636)
117,304,116 St-Columbia University,M,-73.96411,40.807722,['1 2 3'],POINT (-8233647.062177675 4984021.937086007)
602,304,Buhre Av,Bx,-73.832569,40.84681,['4 5 6'],POINT (-8219003.985039236 4989772.364419152)
B20,303,20 Av,Bk,-73.998168,40.604556,['B/D/F/M'],POINT (-8237438.381395112 4954187.581064051)
B21,301,Bay Pkwy,Bk,-73.993728,40.601875,['B/D/F/M'],POINT (-8236944.12285599 4953794.49112511)
412,300,170 St,Bx,-73.917791,40.840075,['4 5 6'],POINT (-8228490.85468362 4988781.303796248)
609,298,St Lawrence Av,Bx,-73.867618,40.831509,['4 5 6'],POINT (-8222905.621872048 4987520.955536955)
253,296,Rockaway Av,Bk,-73.908946,40.662549,['1 2 3' '4 5 6'],POINT (-8227506.233787553 4962694.415001885)
210,295,Allerton Av,Bx,-73.867352,40.865462,['1 2 3' '4 5 6'],POINT (-8222876.010887498 4992517.546962145)
611,295,Elder Av,Bx,-73.879159,40.828584,['4 5 6'],POINT (-8224190.360115294 4987090.626422103)
228,294,Park Place,M,-74.008811,40.713051,['1 2 3'],POINT (-8238623.154735623 4970108.441495618)
617,292,Cypress Av,Bx,-73.914042,40.805368,['4 5 6'],POINT (-8228073.517912636 4983675.7367746495)
249,287,Kingston Av,Bk,-73.942161,40.669399,['4 5 6' '1 2 3'],POINT (-8231203.710674252 4963699.7108990755)
256,286,Van Siclen Av,Bk,-73.889395,40.665449,['1 2 3' '4 5 6'],POINT (-8225329.826423054 4963120.002121398)
B14,282,50 St,Bk,-73.994791,40.63626,['B/D/F/M'],POINT (-8237062.455474703 4958837.238195333)
504,281,Pelham Pkwy,Bx,-73.855359,40.858985,['4 5 6'],POINT (-8221540.956234415 4991564.181033896)
S01,278,Franklin Av,Bk,-73.955827,40.680596,['S'],POINT (-8232725.002835433 4965343.188491902)
615,278,E 149 St,Bx,-73.904098,40.812118,['4 5 6'],POINT (-8226966.556896188 4984668.485078848)
218,264,Intervale Av,Bx,-73.896736,40.822181,['4 5 6' '1 2 3'],POINT (-8226147.022804968 4986148.676495216)
118,252,Cathedral Pkwy (110 St),M,-73.966847,40.803967,['1 2 3'],POINT (-8233951.743623976 4983469.699002928)
635,247,14 St-Union Sq,M,-73.989951,40.734673,['4 5 6'],POINT (-8236523.669139262 4973284.412677233)
233,245,Hoyt St,Bk,-73.985065,40.690545,['1 2 3'],POINT (-8235979.7621072475 4966803.718298695)
206,245,225 St,Bx,-73.860341,40.888022,['1 2 3' '4 5 6'],POINT (-8222095.549937547 4995838.938354907)
411,242,Mt Eden Av,Bx,-73.914685,40.844434,['4 5 6'],POINT (-8228145.096345217 4989422.722625845)
410,232,176 St,Bx,-73.911794,40.84848,['4 5 6'],POINT (-8227823.271697333 4990018.121834957)
610,232,Morrison Av-Soundview,Bx,-73.874516,40.829521,['4 5 6'],POINT (-8223673.503719541 4987228.476793425)
225,231,125 St,M,-73.945495,40.807754,['1 2 3'],POINT (-8231574.849856555 4984026.643377055)
606,230,Zerega Av,Bx,-73.847036,40.836488,['4 5 6'],POINT (-8220614.444112543 4988253.514982618)
254,225,Junius St,Bk,-73.902447,40.663515,['1 2 3' '4 5 6'],POINT (-8226782.768416888 4962836.1774836)
209,215,Burke Av,Bx,-73.867164,40.871356,['1 2 3' '4 5 6'],POINT (-8222855.082823229 4993385.180687469)
302,215,145 St,M,-73.936245,40.820421,['1 2 3'],POINT (-8230545.144566719 4985889.777565001)
226,181,116 St,M,-73.949625,40.802098,['1 2 3'],POINT (-8232034.599353533 4983194.841680378)
301,170,Harlem-148 St,M,-73.93647,40.82388,['1 2 3'],POINT (-8230570.191452148 4986398.608740966)
S09,153,Tottenville,SI,-74.251961,40.512764,[nan],POINT (-8265690.488922007 4940737.937009936)
S03,108,Park Pl,Bk,-73.957624,40.674772,['S'],POINT (-8232925.043960388 4964488.316724074)
S04,95,Botanic Garden,Bk,-73.959245,40.670343,['S'],POINT (-8233105.492854964 4963838.259042613)
